[
  {
    "name": "대전역/중앙시장(10010)",
    "lat": 36.329544,
    "lng": 127.433304,
    "passengers": 80088
  },
  {
    "name": "원동네거리(10020)",
    "lat": 36.32629,
    "lng": 127.43351,
    "passengers": 3104
  },
  {
    "name": "중앙시장(10030)",
    "lat": 36.329105,
    "lng": 127.43359,
    "passengers": 103593
  },
  {
    "name": "대전역/역전시장(10040)",
    "lat": 36.32953,
    "lng": 127.43368,
    "passengers": 191218
  },
  {
    "name": "중앙시장(10050)",
    "lat": 36.32856,
    "lng": 127.43393,
    "passengers": 46083
  },
  {
    "name": "중앙시장(10060)",
    "lat": 36.328297,
    "lng": 127.43441,
    "passengers": 34468
  },
  {
    "name": "원동네거리(10070)",
    "lat": 36.32757,
    "lng": 127.43485,
    "passengers": 55627
  },
  {
    "name": "원동네거리(10080)",
    "lat": 36.32597,
    "lng": 127.435356,
    "passengers": 17147
  },
  {
    "name": "신인동주민센터(10090)",
    "lat": 36.323513,
    "lng": 127.437065,
    "passengers": 22356
  },
  {
    "name": "인동네거리(10100)",
    "lat": 36.32267,
    "lng": 127.43716,
    "passengers": 11251
  },
  {
    "name": "인동현대아파트(10110)",
    "lat": 36.319748,
    "lng": 127.43852,
    "passengers": 5814
  },
  {
    "name": "인동네거리(10120)",
    "lat": 36.32178,
    "lng": 127.43868,
    "passengers": 6640
  },
  {
    "name": "인동현대아파트(10130)",
    "lat": 36.319553,
    "lng": 127.438934,
    "passengers": 14698
  },
  {
    "name": "동부경찰서(10140)",
    "lat": 36.322468,
    "lng": 127.44054,
    "passengers": 11048
  },
  {
    "name": "동부경찰서(10150)",
    "lat": 36.32222,
    "lng": 127.4407,
    "passengers": 2830
  },
  {
    "name": "효동네거리(10160)",
    "lat": 36.31885,
    "lng": 127.43924,
    "passengers": 4493
  },
  {
    "name": "효동네거리(10170)",
    "lat": 36.316166,
    "lng": 127.43991,
    "passengers": 11709
  },
  {
    "name": "효동네거리(10180)",
    "lat": 36.31648,
    "lng": 127.44009,
    "passengers": 12638
  },
  {
    "name": "효동행정복지센터(10190)",
    "lat": 36.316086,
    "lng": 127.44082,
    "passengers": 5745
  },
  {
    "name": "효동행정복지센터(10200)",
    "lat": 36.316113,
    "lng": 127.44108,
    "passengers": 9533
  },
  {
    "name": "효동현대아파트(10210)",
    "lat": 36.317142,
    "lng": 127.441475,
    "passengers": 7724
  },
  {
    "name": "효동현대아파트(10220)",
    "lat": 36.318287,
    "lng": 127.44251,
    "passengers": 5179
  },
  {
    "name": "천석교(10230)",
    "lat": 36.312794,
    "lng": 127.441505,
    "passengers": 1695
  },
  {
    "name": "천석교(10240)",
    "lat": 36.312378,
    "lng": 127.441696,
    "passengers": 1839
  },
  {
    "name": "천동(10250)",
    "lat": 36.311775,
    "lng": 127.44478,
    "passengers": 2527
  },
  {
    "name": "천동(10260)",
    "lat": 36.311913,
    "lng": 127.44531,
    "passengers": 2722
  },
  {
    "name": "천동주공아파트(10270)",
    "lat": 36.310314,
    "lng": 127.4487,
    "passengers": 1437
  },
  {
    "name": "천동주공아파트(10280)",
    "lat": 36.310764,
    "lng": 127.448616,
    "passengers": 1448
  },
  {
    "name": "가오동(10290)",
    "lat": 36.308155,
    "lng": 127.44981,
    "passengers": 6
  },
  {
    "name": "가오동(10300)",
    "lat": 36.308857,
    "lng": 127.450066,
    "passengers": 3876
  },
  {
    "name": "가오동(10310)",
    "lat": 36.308,
    "lng": 127.45078,
    "passengers": 3513
  },
  {
    "name": "가오주공아파트(10320)",
    "lat": 36.30562,
    "lng": 127.45257,
    "passengers": 10848
  },
  {
    "name": "가오주공아파트(10330)",
    "lat": 36.30534,
    "lng": 127.45268,
    "passengers": 10317
  },
  {
    "name": "남대전변전소(10340)",
    "lat": 36.30386,
    "lng": 127.45436,
    "passengers": 6012
  },
  {
    "name": "남대전변전소(10350)",
    "lat": 36.303745,
    "lng": 127.454315,
    "passengers": 4177
  },
  {
    "name": "가오동네거리(10360)",
    "lat": 36.30556,
    "lng": 127.454636,
    "passengers": 7542
  },
  {
    "name": "가오동네거리(10370)",
    "lat": 36.30542,
    "lng": 127.4548,
    "passengers": 7071
  },
  {
    "name": "동구청(10380)",
    "lat": 36.311527,
    "lng": 127.45552,
    "passengers": 9706
  },
  {
    "name": "동구청(10390)",
    "lat": 36.31034,
    "lng": 127.45545,
    "passengers": 11318
  },
  {
    "name": "은어송초등학교(10400)",
    "lat": 36.30094,
    "lng": 127.45711,
    "passengers": 11213
  },
  {
    "name": "은어송초등학교(10410)",
    "lat": 36.301514,
    "lng": 127.45674,
    "passengers": 6443
  },
  {
    "name": "휴먼시아10단지(47130)",
    "lat": 36.338127,
    "lng": 127.341095,
    "passengers": 1449
  },
  {
    "name": "휴먼시아10단지(47140)",
    "lat": 36.338364,
    "lng": 127.33897,
    "passengers": 1204
  },
  {
    "name": "남부여성가족원(10480)",
    "lat": 36.30239,
    "lng": 127.45967,
    "passengers": 1671
  },
  {
    "name": "신흥동종점(10530)",
    "lat": 36.32252,
    "lng": 127.44274,
    "passengers": 82
  },
  {
    "name": "어진마을아파트(10550)",
    "lat": 36.320877,
    "lng": 127.44382,
    "passengers": 12363
  },
  {
    "name": "신흥마을아파트정문(10560)",
    "lat": 36.32078,
    "lng": 127.44406,
    "passengers": 9850
  },
  {
    "name": "신흥동시외버스정류소(10570)",
    "lat": 36.322495,
    "lng": 127.44479,
    "passengers": 2102
  },
  {
    "name": "신흥동시외버스정류소(10580)",
    "lat": 36.322445,
    "lng": 127.44515,
    "passengers": 2147
  },
  {
    "name": "충남중학교(10590)",
    "lat": 36.324642,
    "lng": 127.44547,
    "passengers": 5796
  },
  {
    "name": "신흥마을아파트(10600)",
    "lat": 36.321133,
    "lng": 127.44586,
    "passengers": 6205
  },
  {
    "name": "신흥마을아파트후문(10610)",
    "lat": 36.32126,
    "lng": 127.44515,
    "passengers": 16496
  },
  {
    "name": "신흥역(10630)",
    "lat": 36.31937,
    "lng": 127.44914,
    "passengers": 9386
  },
  {
    "name": "신흥역(10640)",
    "lat": 36.31929,
    "lng": 127.44983,
    "passengers": 7393
  },
  {
    "name": "판암근린공원(10650)",
    "lat": 36.317993,
    "lng": 127.45208,
    "passengers": 3105
  },
  {
    "name": "판암근린공원(10660)",
    "lat": 36.318115,
    "lng": 127.45234,
    "passengers": 2736
  },
  {
    "name": "미리내아파트(10670)",
    "lat": 36.31688,
    "lng": 127.45562,
    "passengers": 14500
  },
  {
    "name": "판암역네거리(10680)",
    "lat": 36.317104,
    "lng": 127.455795,
    "passengers": 16297
  },
  {
    "name": "판암역네거리(10690)",
    "lat": 36.317326,
    "lng": 127.45653,
    "passengers": 8843
  },
  {
    "name": "판암역(10740)",
    "lat": 36.316902,
    "lng": 127.459305,
    "passengers": 62086
  },
  {
    "name": "판암역(10760)",
    "lat": 36.31727,
    "lng": 127.45966,
    "passengers": 54888
  },
  {
    "name": "판암테크노타운(10770)",
    "lat": 36.32215,
    "lng": 127.461494,
    "passengers": 12676
  },
  {
    "name": "판암네거리(10780)",
    "lat": 36.31825,
    "lng": 127.46168,
    "passengers": 13204
  },
  {
    "name": "판암동성당(10790)",
    "lat": 36.319996,
    "lng": 127.461815,
    "passengers": 2361
  },
  {
    "name": "판암네거리(10800)",
    "lat": 36.318077,
    "lng": 127.461815,
    "passengers": 3578
  },
  {
    "name": "판암동성당(10810)",
    "lat": 36.31991,
    "lng": 127.46227,
    "passengers": 2109
  },
  {
    "name": "판암차량기지(10840)",
    "lat": 36.32133,
    "lng": 127.471565,
    "passengers": 1059
  },
  {
    "name": "판암차량기지(10850)",
    "lat": 36.32036,
    "lng": 127.47139,
    "passengers": 1274
  },
  {
    "name": "삼정동(10860)",
    "lat": 36.325794,
    "lng": 127.47292,
    "passengers": 5179
  },
  {
    "name": "삼정동(10870)",
    "lat": 36.325916,
    "lng": 127.47342,
    "passengers": 1028
  },
  {
    "name": "한밭여중입구(10880)",
    "lat": 36.32737,
    "lng": 127.44761,
    "passengers": 1505
  },
  {
    "name": "용방마을아파트(10890)",
    "lat": 36.326893,
    "lng": 127.4507,
    "passengers": 7318
  },
  {
    "name": "용방마을아파트(10900)",
    "lat": 36.327393,
    "lng": 127.45037,
    "passengers": 4576
  },
  {
    "name": "우송대동캠퍼스(10910)",
    "lat": 36.333096,
    "lng": 127.453415,
    "passengers": 8223
  },
  {
    "name": "용운종합사회복지관(10940)",
    "lat": 36.327587,
    "lng": 127.45379,
    "passengers": 14617
  },
  {
    "name": "용운마젤란아파트(10950)",
    "lat": 36.337708,
    "lng": 127.45729,
    "passengers": 19230
  },
  {
    "name": "대전대학교입구(10960)",
    "lat": 36.32818,
    "lng": 127.45814,
    "passengers": 10197
  },
  {
    "name": "꿈에그린아파트(10970)",
    "lat": 36.333107,
    "lng": 127.45718,
    "passengers": 9768
  },
  {
    "name": "용운마젤란아파트(10980)",
    "lat": 36.338184,
    "lng": 127.457634,
    "passengers": 11724
  },
  {
    "name": "꿈에그린아파트(10990)",
    "lat": 36.333054,
    "lng": 127.457306,
    "passengers": 11720
  },
  {
    "name": "대전대학교입구(11000)",
    "lat": 36.328743,
    "lng": 127.45931,
    "passengers": 5933
  },
  {
    "name": "대전대학교입구(11010)",
    "lat": 36.32804,
    "lng": 127.45949,
    "passengers": 10713
  },
  {
    "name": "용운동주민센터(11020)",
    "lat": 36.327988,
    "lng": 127.46078,
    "passengers": 39175
  },
  {
    "name": "대전대학교(11030)",
    "lat": 36.3307,
    "lng": 127.460594,
    "passengers": 9150
  },
  {
    "name": "용운초등학교(11040)",
    "lat": 36.32687,
    "lng": 127.4616,
    "passengers": 10204
  },
  {
    "name": "은어송마을1단지(10430)",
    "lat": 36.303543,
    "lng": 127.45721,
    "passengers": 2261
  },
  {
    "name": "용운동주민센터(11050)",
    "lat": 36.32833,
    "lng": 127.461784,
    "passengers": 3288
  },
  {
    "name": "용운도서관(11060)",
    "lat": 36.324986,
    "lng": 127.46193,
    "passengers": 3928
  },
  {
    "name": "용운도서관(11070)",
    "lat": 36.32468,
    "lng": 127.462204,
    "passengers": 6454
  },
  {
    "name": "모리아파트(11080)",
    "lat": 36.323086,
    "lng": 127.46233,
    "passengers": 2660
  },
  {
    "name": "에코포레아파트(11090)",
    "lat": 36.3304,
    "lng": 127.463135,
    "passengers": 5342
  },
  {
    "name": "대전대학교(11100)",
    "lat": 36.33268,
    "lng": 127.46375,
    "passengers": 823
  },
  {
    "name": "용운국제수영장(11110)",
    "lat": 36.324577,
    "lng": 127.46516,
    "passengers": 5518
  },
  {
    "name": "용운국제수영장(11120)",
    "lat": 36.324547,
    "lng": 127.46535,
    "passengers": 7005
  },
  {
    "name": "테크노밸리11.12단지(44420)",
    "lat": 36.417664,
    "lng": 127.39526,
    "passengers": 5927
  },
  {
    "name": "새울(11130)",
    "lat": 36.330772,
    "lng": 127.46579,
    "passengers": 2105
  },
  {
    "name": "에코포레아파트(11140)",
    "lat": 36.328133,
    "lng": 127.46638,
    "passengers": 5625
  },
  {
    "name": "새울(11150)",
    "lat": 36.330875,
    "lng": 127.46608,
    "passengers": 638
  },
  {
    "name": "복음아파트(11160)",
    "lat": 36.3285,
    "lng": 127.46664,
    "passengers": 5198
  },
  {
    "name": "새들뫼아파트(11200)",
    "lat": 36.328083,
    "lng": 127.44307,
    "passengers": 9029
  },
  {
    "name": "펜타뷰아파트(11220)",
    "lat": 36.328777,
    "lng": 127.44422,
    "passengers": 3658
  },
  {
    "name": "충남중네거리(11230)",
    "lat": 36.327457,
    "lng": 127.44421,
    "passengers": 6623
  },
  {
    "name": "우송고등학교(11240)",
    "lat": 36.333046,
    "lng": 127.4454,
    "passengers": 27533
  },
  {
    "name": "충남중학교(11250)",
    "lat": 36.3247,
    "lng": 127.44583,
    "passengers": 4053
  },
  {
    "name": "대동초등학교(11260)",
    "lat": 36.325996,
    "lng": 127.447266,
    "passengers": 5470
  },
  {
    "name": "대동초등학교(11270)",
    "lat": 36.326206,
    "lng": 127.44738,
    "passengers": 7409
  },
  {
    "name": "자양초등학교(11280)",
    "lat": 36.33128,
    "lng": 127.44392,
    "passengers": 30731
  },
  {
    "name": "우송고등학교(11290)",
    "lat": 36.33445,
    "lng": 127.44585,
    "passengers": 38139
  },
  {
    "name": "우송대삼거리(11300)",
    "lat": 36.336014,
    "lng": 127.44718,
    "passengers": 54821
  },
  {
    "name": "우송대학교서캠퍼스(11310)",
    "lat": 36.337547,
    "lng": 127.44774,
    "passengers": 46590
  },
  {
    "name": "자양동(11320)",
    "lat": 36.34058,
    "lng": 127.448616,
    "passengers": 26620
  },
  {
    "name": "대주파크빌(11330)",
    "lat": 36.342396,
    "lng": 127.4488,
    "passengers": 10007
  },
  {
    "name": "주촌1구(13370)",
    "lat": 36.398964,
    "lng": 127.533936,
    "passengers": 40
  },
  {
    "name": "주촌1구(13380)",
    "lat": 36.39872,
    "lng": 127.534134,
    "passengers": 20
  },
  {
    "name": "우송어학센터(11340)",
    "lat": 36.339973,
    "lng": 127.44899,
    "passengers": 31841
  },
  {
    "name": "자양동주민센터(11350)",
    "lat": 36.335636,
    "lng": 127.44929,
    "passengers": 16475
  },
  {
    "name": "자양동주민센터(11360)",
    "lat": 36.335342,
    "lng": 127.44951,
    "passengers": 8618
  },
  {
    "name": "동아마이스터고(11370)",
    "lat": 36.344177,
    "lng": 127.45187,
    "passengers": 7434
  },
  {
    "name": "이스트시티아파트(11380)",
    "lat": 36.328053,
    "lng": 127.439354,
    "passengers": 34575
  },
  {
    "name": "대전화병원(11390)",
    "lat": 36.328274,
    "lng": 127.439354,
    "passengers": 18929
  },
  {
    "name": "대전역동광장(11400)",
    "lat": 36.3335,
    "lng": 127.43905,
    "passengers": 92
  },
  {
    "name": "신안동(11400)",
    "lat": 36.33171,
    "lng": 127.440285,
    "passengers": 10790
  },
  {
    "name": "하소1통(14050)",
    "lat": 36.223667,
    "lng": 127.4429,
    "passengers": 646
  },
  {
    "name": "하소1통(14060)",
    "lat": 36.223465,
    "lng": 127.442986,
    "passengers": 688
  },
  {
    "name": "대전역동광장(11410)",
    "lat": 36.332943,
    "lng": 127.43691,
    "passengers": 712
  },
  {
    "name": "대전역동광장(11410)",
    "lat": 36.33353,
    "lng": 127.43734,
    "passengers": 13261
  },
  {
    "name": "대전역동광장종점(11420)",
    "lat": 36.332012,
    "lng": 127.437904,
    "passengers": 11
  },
  {
    "name": "대전역동광장종점(11420)",
    "lat": 36.332615,
    "lng": 127.43771,
    "passengers": 1092
  },
  {
    "name": "대전역동광장종점(11420)",
    "lat": 36.33268,
    "lng": 127.4376,
    "passengers": 387
  },
  {
    "name": "대전역동광장(11430)",
    "lat": 36.333298,
    "lng": 127.438736,
    "passengers": 7
  },
  {
    "name": "대전역동광장(11430)",
    "lat": 36.33362,
    "lng": 127.43908,
    "passengers": 6197
  },
  {
    "name": "중앙동주민센터(11450)",
    "lat": 36.335583,
    "lng": 127.43895,
    "passengers": 3657
  },
  {
    "name": "중앙동주민센터(11460)",
    "lat": 36.33516,
    "lng": 127.43944,
    "passengers": 7080
  },
  {
    "name": "신안동(11470)",
    "lat": 36.33159,
    "lng": 127.440704,
    "passengers": 2887
  },
  {
    "name": "천년나무11단지(47150)",
    "lat": 36.33883,
    "lng": 127.346405,
    "passengers": 731
  },
  {
    "name": "천년나무11단지(47160)",
    "lat": 36.338825,
    "lng": 127.3457,
    "passengers": 1164
  },
  {
    "name": "아침마을아파트(11480)",
    "lat": 36.34226,
    "lng": 127.43931,
    "passengers": 8314
  },
  {
    "name": "동부네거리(11490)",
    "lat": 36.350216,
    "lng": 127.44048,
    "passengers": 18067
  },
  {
    "name": "가양초등학교(11500)",
    "lat": 36.343613,
    "lng": 127.44162,
    "passengers": 14780
  },
  {
    "name": "가양초등학교(11510)",
    "lat": 36.344067,
    "lng": 127.443184,
    "passengers": 13956
  },
  {
    "name": "동대전시립도서관(11520)",
    "lat": 36.348995,
    "lng": 127.443214,
    "passengers": 25171
  },
  {
    "name": "동대전시립도서관(11530)",
    "lat": 36.348614,
    "lng": 127.443924,
    "passengers": 17812
  },
  {
    "name": "가양네거리(11540)",
    "lat": 36.346535,
    "lng": 127.444756,
    "passengers": 13874
  },
  {
    "name": "가양네거리(11550)",
    "lat": 36.34641,
    "lng": 127.445335,
    "passengers": 38122
  },
  {
    "name": "흥룡초등학교(11560)",
    "lat": 36.34435,
    "lng": 127.44649,
    "passengers": 12812
  },
  {
    "name": "가양동우체국(11570)",
    "lat": 36.346153,
    "lng": 127.44707,
    "passengers": 15316
  },
  {
    "name": "가양네거리(11580)",
    "lat": 36.34603,
    "lng": 127.44739,
    "passengers": 16589
  },
  {
    "name": "대주파크빌(11590)",
    "lat": 36.342636,
    "lng": 127.44803,
    "passengers": 16248
  },
  {
    "name": "대주파크빌(11600)",
    "lat": 36.34312,
    "lng": 127.44945,
    "passengers": 12659
  },
  {
    "name": "대전보건대학교(11610)",
    "lat": 36.348354,
    "lng": 127.45088,
    "passengers": 36067
  },
  {
    "name": "평화아파트(11620)",
    "lat": 36.354103,
    "lng": 127.450836,
    "passengers": 4023
  },
  {
    "name": "대전보건대학교(11630)",
    "lat": 36.34831,
    "lng": 127.45116,
    "passengers": 30573
  },
  {
    "name": "한국폴리텍대학(11640)",
    "lat": 36.350567,
    "lng": 127.452126,
    "passengers": 23858
  },
  {
    "name": "한국폴리텍대학(11650)",
    "lat": 36.350624,
    "lng": 127.45245,
    "passengers": 20303
  },
  {
    "name": "동아마이스터고(11660)",
    "lat": 36.34487,
    "lng": 127.45285,
    "passengers": 7525
  },
  {
    "name": "대전보건대학교(11670)",
    "lat": 36.34843,
    "lng": 127.45379,
    "passengers": 17467
  },
  {
    "name": "대전보건대학교(11680)",
    "lat": 36.348534,
    "lng": 127.45397,
    "passengers": 12462
  },
  {
    "name": "명석고등학교(11690)",
    "lat": 36.354073,
    "lng": 127.45417,
    "passengers": 29532
  },
  {
    "name": "우암사적공원(11700)",
    "lat": 36.346542,
    "lng": 127.45544,
    "passengers": 7526
  },
  {
    "name": "우암사적공원(11710)",
    "lat": 36.346783,
    "lng": 127.456085,
    "passengers": 10975
  },
  {
    "name": "한숲아파트(11720)",
    "lat": 36.35473,
    "lng": 127.427666,
    "passengers": 14158
  },
  {
    "name": "용전네거리(11730)",
    "lat": 36.349922,
    "lng": 127.43197,
    "passengers": 16042
  },
  {
    "name": "대전지방국토관리청(11740)",
    "lat": 36.35224,
    "lng": 127.4322,
    "passengers": 16004
  },
  {
    "name": "용전동주민센터(11750)",
    "lat": 36.358025,
    "lng": 127.43249,
    "passengers": 11507
  },
  {
    "name": "용전네거리(11760)",
    "lat": 36.350033,
    "lng": 127.43247,
    "passengers": 19333
  },
  {
    "name": "용전초등학교입구(11770)",
    "lat": 36.3551,
    "lng": 127.43244,
    "passengers": 13172
  },
  {
    "name": "대전지방국토관리청(11780)",
    "lat": 36.35209,
    "lng": 127.43263,
    "passengers": 2959
  },
  {
    "name": "용전초등학교입구(11790)",
    "lat": 36.355015,
    "lng": 127.43293,
    "passengers": 26392
  },
  {
    "name": "용전동주민센터(11800)",
    "lat": 36.357227,
    "lng": 127.43301,
    "passengers": 2438
  },
  {
    "name": "한국전력공사(11810)",
    "lat": 36.357193,
    "lng": 127.43447,
    "passengers": 25426
  },
  {
    "name": "한국전력공사(11820)",
    "lat": 36.357525,
    "lng": 127.4347,
    "passengers": 23254
  },
  {
    "name": "복합터미널(11830)",
    "lat": 36.349014,
    "lng": 127.43567,
    "passengers": 246982
  },
  {
    "name": "대전문학관입구(11840)",
    "lat": 36.355103,
    "lng": 127.436966,
    "passengers": 7448
  },
  {
    "name": "대전문학관입구(11850)",
    "lat": 36.35508,
    "lng": 127.437546,
    "passengers": 6404
  },
  {
    "name": "한국전기공사협회(11860)",
    "lat": 36.353367,
    "lng": 127.43958,
    "passengers": 6365
  },
  {
    "name": "동부네거리(11870)",
    "lat": 36.35043,
    "lng": 127.43968,
    "passengers": 91805
  },
  {
    "name": "구샤또호텔(11880)",
    "lat": 36.35286,
    "lng": 127.43957,
    "passengers": 2948
  },
  {
    "name": "삼성네거리(11920)",
    "lat": 36.33878,
    "lng": 127.428825,
    "passengers": 4837
  },
  {
    "name": "홍도지하차도(11930)",
    "lat": 36.34603,
    "lng": 127.43053,
    "passengers": 18067
  },
  {
    "name": "효촌마을아파트(11940)",
    "lat": 36.346275,
    "lng": 127.43249,
    "passengers": 14975
  },
  {
    "name": "효촌마을아파트(11950)",
    "lat": 36.34516,
    "lng": 127.43355,
    "passengers": 19463
  },
  {
    "name": "송촌119안전센터(50930)",
    "lat": 36.362892,
    "lng": 127.438705,
    "passengers": 7639
  },
  {
    "name": "송촌119안전센터(50940)",
    "lat": 36.362732,
    "lng": 127.43898,
    "passengers": 4868
  },
  {
    "name": "스마트뷰아파트(11960)",
    "lat": 36.343735,
    "lng": 127.43398,
    "passengers": 15958
  },
  {
    "name": "성남네거리(11970)",
    "lat": 36.34042,
    "lng": 127.43501,
    "passengers": 39499
  },
  {
    "name": "성남네거리(11980)",
    "lat": 36.3417,
    "lng": 127.43559,
    "passengers": 32240
  },
  {
    "name": "성남네거리(11990)",
    "lat": 36.340137,
    "lng": 127.43618,
    "passengers": 9182
  },
  {
    "name": "성남네거리(12000)",
    "lat": 36.341225,
    "lng": 127.43724,
    "passengers": 13764
  },
  {
    "name": "중앙로역1번출구(20040)",
    "lat": 36.32884,
    "lng": 127.42673,
    "passengers": 62332
  },
  {
    "name": "복합터미널(12010)",
    "lat": 36.349037,
    "lng": 127.437195,
    "passengers": 310573
  },
  {
    "name": "석촌마을아파트(12020)",
    "lat": 36.34193,
    "lng": 127.43802,
    "passengers": 12354
  },
  {
    "name": "홍도지하보도(12060)",
    "lat": 36.34765,
    "lng": 127.422035,
    "passengers": 2135
  },
  {
    "name": "홍도지하보도(12070)",
    "lat": 36.34794,
    "lng": 127.4216,
    "passengers": 1784
  },
  {
    "name": "홍도동현암아파트(12080)",
    "lat": 36.344486,
    "lng": 127.42376,
    "passengers": 1269
  },
  {
    "name": "홍도동현암아파트(12090)",
    "lat": 36.344673,
    "lng": 127.42378,
    "passengers": 1706
  },
  {
    "name": "한남로삼거리(12110)",
    "lat": 36.351215,
    "lng": 127.42663,
    "passengers": 58317
  },
  {
    "name": "한남로삼거리(12120)",
    "lat": 36.35128,
    "lng": 127.427414,
    "passengers": 32034
  },
  {
    "name": "아리랑프라자(12130)",
    "lat": 36.34827,
    "lng": 127.429344,
    "passengers": 2562
  },
  {
    "name": "오룡역1번출구(21370)",
    "lat": 36.32742,
    "lng": 127.40632,
    "passengers": 9997
  },
  {
    "name": "홍도지하차도(12140)",
    "lat": 36.346127,
    "lng": 127.4301,
    "passengers": 24173
  },
  {
    "name": "아리랑프라자(12150)",
    "lat": 36.34771,
    "lng": 127.42996,
    "passengers": 5995
  },
  {
    "name": "태평1동주민센터(21550)",
    "lat": 36.326595,
    "lng": 127.397446,
    "passengers": 16643
  },
  {
    "name": "태평1동주민센터(21580)",
    "lat": 36.326122,
    "lng": 127.3967,
    "passengers": 19328
  },
  {
    "name": "현암시장(12160)",
    "lat": 36.34208,
    "lng": 127.415535,
    "passengers": 2932
  },
  {
    "name": "현암초등학교(12180)",
    "lat": 36.34197,
    "lng": 127.41941,
    "passengers": 3182
  },
  {
    "name": "현암교(12190)",
    "lat": 36.340084,
    "lng": 127.420074,
    "passengers": 18957
  },
  {
    "name": "현암초등학교(12200)",
    "lat": 36.342396,
    "lng": 127.42001,
    "passengers": 2283
  },
  {
    "name": "센트럴파크1단지(22070)",
    "lat": 36.316402,
    "lng": 127.40724,
    "passengers": 9357
  },
  {
    "name": "센트럴파크1단지(22080)",
    "lat": 36.3169,
    "lng": 127.407295,
    "passengers": 14402
  },
  {
    "name": "현암교(12210)",
    "lat": 36.33962,
    "lng": 127.42015,
    "passengers": 14217
  },
  {
    "name": "서대전네거리역1번출구(22230)",
    "lat": 36.321213,
    "lng": 127.41367,
    "passengers": 10410
  },
  {
    "name": "삼성동행정복지센터(12230)",
    "lat": 36.339466,
    "lng": 127.42235,
    "passengers": 4167
  },
  {
    "name": "삼성동행정복지센터(12240)",
    "lat": 36.339497,
    "lng": 127.42258,
    "passengers": 3172
  },
  {
    "name": "북부교(12250)",
    "lat": 36.33825,
    "lng": 127.42381,
    "passengers": 1045
  },
  {
    "name": "북부교(12260)",
    "lat": 36.33818,
    "lng": 127.42418,
    "passengers": 1614
  },
  {
    "name": "정생1동(22820)",
    "lat": 36.256115,
    "lng": 127.39937,
    "passengers": 361
  },
  {
    "name": "정생1동(22830)",
    "lat": 36.256176,
    "lng": 127.3995,
    "passengers": 445
  },
  {
    "name": "한밭중네거리(12290)",
    "lat": 36.336952,
    "lng": 127.42679,
    "passengers": 5916
  },
  {
    "name": "한밭중네거리(12300)",
    "lat": 36.33666,
    "lng": 127.42679,
    "passengers": 4604
  },
  {
    "name": "삼성초등학교(12310)",
    "lat": 36.336464,
    "lng": 127.43009,
    "passengers": 57244
  },
  {
    "name": "삼성네거리(12320)",
    "lat": 36.33712,
    "lng": 127.43016,
    "passengers": 8969
  },
  {
    "name": "삼성초등학교(12330)",
    "lat": 36.336555,
    "lng": 127.43039,
    "passengers": 5995
  },
  {
    "name": "원앙1,2단지(33540)",
    "lat": 36.307995,
    "lng": 127.33908,
    "passengers": 11704
  },
  {
    "name": "느리울12단지(33580)",
    "lat": 36.298435,
    "lng": 127.34066,
    "passengers": 16898
  },
  {
    "name": "느리울12단지(33610)",
    "lat": 36.298183,
    "lng": 127.340866,
    "passengers": 21514
  },
  {
    "name": "계룡디지텍고입구(12340)",
    "lat": 36.33935,
    "lng": 127.433395,
    "passengers": 18164
  },
  {
    "name": "대성여자고등학교(12350)",
    "lat": 36.33699,
    "lng": 127.43872,
    "passengers": 11865
  },
  {
    "name": "대성여자고등학교(12350)",
    "lat": 36.33816,
    "lng": 127.43792,
    "passengers": 1106
  },
  {
    "name": "대성여자고등학교(12360)",
    "lat": 36.337444,
    "lng": 127.43807,
    "passengers": 10440
  },
  {
    "name": "대전역(12370)",
    "lat": 36.33344,
    "lng": 127.431404,
    "passengers": 111933
  },
  {
    "name": "대전역/하나은행(12380)",
    "lat": 36.333744,
    "lng": 127.43168,
    "passengers": 10836
  },
  {
    "name": "대전역(12390)",
    "lat": 36.332737,
    "lng": 127.431725,
    "passengers": 103624
  },
  {
    "name": "대전역(12400)",
    "lat": 36.33254,
    "lng": 127.43213,
    "passengers": 162206
  },
  {
    "name": "대전역(12410)",
    "lat": 36.33195,
    "lng": 127.43239,
    "passengers": 36986
  },
  {
    "name": "어울림하트 12단지(41900)",
    "lat": 36.332397,
    "lng": 127.34395,
    "passengers": 5414
  },
  {
    "name": "목척교(12420)",
    "lat": 36.33036,
    "lng": 127.4299,
    "passengers": 23653
  },
  {
    "name": "목척교(12430)",
    "lat": 36.330173,
    "lng": 127.43032,
    "passengers": 44651
  },
  {
    "name": "목척교(12440)",
    "lat": 36.330624,
    "lng": 127.430565,
    "passengers": 58423
  },
  {
    "name": "푸르지오하임1,2단지(44430)",
    "lat": 36.41755,
    "lng": 127.39538,
    "passengers": 5252
  },
  {
    "name": "목척교(12450)",
    "lat": 36.330685,
    "lng": 127.43078,
    "passengers": 49011
  },
  {
    "name": "대전역(12460)",
    "lat": 36.33046,
    "lng": 127.43108,
    "passengers": 71092
  },
  {
    "name": "대전역(12470)",
    "lat": 36.330814,
    "lng": 127.43195,
    "passengers": 70540
  },
  {
    "name": "테크노밸리12단지(47090)",
    "lat": 36.417316,
    "lng": 127.39279,
    "passengers": 2378
  },
  {
    "name": "테크노밸리12단지(47120)",
    "lat": 36.417107,
    "lng": 127.39259,
    "passengers": 1971
  },
  {
    "name": "상추(12490)",
    "lat": 36.374332,
    "lng": 127.46789,
    "passengers": 15
  },
  {
    "name": "상추(12500)",
    "lat": 36.374405,
    "lng": 127.4679,
    "passengers": 18
  },
  {
    "name": "중말(12510)",
    "lat": 36.373337,
    "lng": 127.46844,
    "passengers": 476
  },
  {
    "name": "대청호자연생태관(12520)",
    "lat": 36.373745,
    "lng": 127.47215,
    "passengers": 308
  },
  {
    "name": "대청호자연생태관(12540)",
    "lat": 36.373554,
    "lng": 127.47212,
    "passengers": 493
  },
  {
    "name": "중추마을/가래울(12550)",
    "lat": 36.375797,
    "lng": 127.475426,
    "passengers": 209
  },
  {
    "name": "중추마을/가래울(12560)",
    "lat": 36.375736,
    "lng": 127.4755,
    "passengers": 100
  },
  {
    "name": "동명초등학교(12570)",
    "lat": 36.37255,
    "lng": 127.47566,
    "passengers": 10
  },
  {
    "name": "동명초등학교(12580)",
    "lat": 36.373413,
    "lng": 127.47544,
    "passengers": 158
  },
  {
    "name": "동명초등학교(12590)",
    "lat": 36.373188,
    "lng": 127.47517,
    "passengers": 267
  },
  {
    "name": "추동취수장(12600)",
    "lat": 36.370747,
    "lng": 127.475746,
    "passengers": 239
  },
  {
    "name": "추동취수장(12610)",
    "lat": 36.37068,
    "lng": 127.475845,
    "passengers": 302
  },
  {
    "name": "비룡교차로(12640)",
    "lat": 36.348557,
    "lng": 127.473434,
    "passengers": 382
  },
  {
    "name": "비룡교차로(12650)",
    "lat": 36.348442,
    "lng": 127.47346,
    "passengers": 335
  },
  {
    "name": "대전동신과학고(12670)",
    "lat": 36.33145,
    "lng": 127.47566,
    "passengers": 1166
  },
  {
    "name": "대전동신과학고(12670)",
    "lat": 36.33222,
    "lng": 127.476906,
    "passengers": 191
  },
  {
    "name": "대전동신과학고(12680)",
    "lat": 36.331985,
    "lng": 127.47629,
    "passengers": 1965
  },
  {
    "name": "대전동신과학고(12680)",
    "lat": 36.332317,
    "lng": 127.47736,
    "passengers": 1191
  },
  {
    "name": "비룡동입구(12690)",
    "lat": 36.332767,
    "lng": 127.47757,
    "passengers": 188
  },
  {
    "name": "비룡/새동네(12700)",
    "lat": 36.343853,
    "lng": 127.47778,
    "passengers": 171
  },
  {
    "name": "비룡/줄골(12710)",
    "lat": 36.338375,
    "lng": 127.47777,
    "passengers": 250
  },
  {
    "name": "비룡/새동네(12720)",
    "lat": 36.343887,
    "lng": 127.47788,
    "passengers": 138
  },
  {
    "name": "비룡/줄골(12730)",
    "lat": 36.338417,
    "lng": 127.47788,
    "passengers": 473
  },
  {
    "name": "가는골(12740)",
    "lat": 36.33526,
    "lng": 127.48288,
    "passengers": 145
  },
  {
    "name": "가는골(12750)",
    "lat": 36.335037,
    "lng": 127.48285,
    "passengers": 260
  },
  {
    "name": "추동(12760)",
    "lat": 36.364178,
    "lng": 127.47642,
    "passengers": 14
  },
  {
    "name": "추동(12770)",
    "lat": 36.36415,
    "lng": 127.47658,
    "passengers": 27
  },
  {
    "name": "금성마을(12780)",
    "lat": 36.353745,
    "lng": 127.47744,
    "passengers": 83
  },
  {
    "name": "금성마을(12790)",
    "lat": 36.353687,
    "lng": 127.47752,
    "passengers": 135
  },
  {
    "name": "주산동/상촌(12800)",
    "lat": 36.356647,
    "lng": 127.47798,
    "passengers": 175
  },
  {
    "name": "주산동/상촌(12810)",
    "lat": 36.356556,
    "lng": 127.47801,
    "passengers": 123
  },
  {
    "name": "원주산.양지말(12820)",
    "lat": 36.36071,
    "lng": 127.48027,
    "passengers": 69
  },
  {
    "name": "원주산.양지말(12830)",
    "lat": 36.360798,
    "lng": 127.480354,
    "passengers": 32
  },
  {
    "name": "마산/진등날(12840)",
    "lat": 36.383434,
    "lng": 127.47952,
    "passengers": 80
  },
  {
    "name": "마산/진등날(12850)",
    "lat": 36.383476,
    "lng": 127.47977,
    "passengers": 108
  },
  {
    "name": "냉천골종점(12860)",
    "lat": 36.41541,
    "lng": 127.49082,
    "passengers": 88
  },
  {
    "name": "원마산(12870)",
    "lat": 36.38655,
    "lng": 127.48071,
    "passengers": 297
  },
  {
    "name": "원마산(12880)",
    "lat": 36.38643,
    "lng": 127.48083,
    "passengers": 215
  },
  {
    "name": "천개동종점(12890)",
    "lat": 36.38206,
    "lng": 127.45881,
    "passengers": 440
  },
  {
    "name": "효평동(12900)",
    "lat": 36.39886,
    "lng": 127.46813,
    "passengers": 263
  },
  {
    "name": "효평동(12910)",
    "lat": 36.39875,
    "lng": 127.46813,
    "passengers": 213
  },
  {
    "name": "효평마루(12920)",
    "lat": 36.406376,
    "lng": 127.473434,
    "passengers": 196
  },
  {
    "name": "효평마루(12930)",
    "lat": 36.40645,
    "lng": 127.473564,
    "passengers": 186
  },
  {
    "name": "효평삼거리(12940)",
    "lat": 36.40928,
    "lng": 127.473564,
    "passengers": 166
  },
  {
    "name": "효평삼거리(12940)",
    "lat": 36.409664,
    "lng": 127.47388,
    "passengers": 52
  },
  {
    "name": "효평삼거리(12950)",
    "lat": 36.40934,
    "lng": 127.47368,
    "passengers": 8
  },
  {
    "name": "효평삼거리(12950)",
    "lat": 36.409588,
    "lng": 127.47391,
    "passengers": 75
  },
  {
    "name": "효평삼거리(12950)",
    "lat": 36.409626,
    "lng": 127.473976,
    "passengers": 115
  },
  {
    "name": "직동종점(12960)",
    "lat": 36.41642,
    "lng": 127.47764,
    "passengers": 10
  },
  {
    "name": "직동종점(12960)",
    "lat": 36.41759,
    "lng": 127.479034,
    "passengers": 494
  },
  {
    "name": "세천공원(12970)",
    "lat": 36.332348,
    "lng": 127.48018,
    "passengers": 5821
  },
  {
    "name": "세천공원(12980)",
    "lat": 36.33221,
    "lng": 127.479866,
    "passengers": 1445
  },
  {
    "name": "세천/새동네(12990)",
    "lat": 36.336132,
    "lng": 127.48561,
    "passengers": 297
  },
  {
    "name": "세천/새동네(13000)",
    "lat": 36.336124,
    "lng": 127.48619,
    "passengers": 337
  },
  {
    "name": "세천동(13010)",
    "lat": 36.340477,
    "lng": 127.49192,
    "passengers": 1467
  },
  {
    "name": "초록마을1단지(30130)",
    "lat": 36.30444,
    "lng": 127.379395,
    "passengers": 10901
  },
  {
    "name": "초록마을1단지(30140)",
    "lat": 36.30422,
    "lng": 127.37948,
    "passengers": 16885
  },
  {
    "name": "세천동(13020)",
    "lat": 36.34042,
    "lng": 127.49213,
    "passengers": 1585
  },
  {
    "name": "세정골(13030)",
    "lat": 36.332264,
    "lng": 127.49243,
    "passengers": 173
  },
  {
    "name": "대청동행정복지센터(13040)",
    "lat": 36.342896,
    "lng": 127.49263,
    "passengers": 859
  },
  {
    "name": "대청동주민센터(13050)",
    "lat": 36.34334,
    "lng": 127.49305,
    "passengers": 566
  },
  {
    "name": "오리골(13060)",
    "lat": 36.349285,
    "lng": 127.48779,
    "passengers": 462
  },
  {
    "name": "세천삼거리(13070)",
    "lat": 36.347694,
    "lng": 127.4951,
    "passengers": 187
  },
  {
    "name": "도마1동행정복지센터(30700)",
    "lat": 36.31518,
    "lng": 127.37899,
    "passengers": 45537
  },
  {
    "name": "도마1동행정복지센터(30710)",
    "lat": 36.31539,
    "lng": 127.379196,
    "passengers": 58865
  },
  {
    "name": "세천삼거리(13080)",
    "lat": 36.348003,
    "lng": 127.49565,
    "passengers": 314
  },
  {
    "name": "신상동(13090)",
    "lat": 36.3438,
    "lng": 127.50134,
    "passengers": 70
  },
  {
    "name": "용문역1번출구(30970)",
    "lat": 36.337086,
    "lng": 127.39442,
    "passengers": 29284
  },
  {
    "name": "바깥아감(13100)",
    "lat": 36.353897,
    "lng": 127.49858,
    "passengers": 168
  },
  {
    "name": "탄방역1번출구(31060)",
    "lat": 36.34527,
    "lng": 127.38429,
    "passengers": 114
  },
  {
    "name": "바깥아감(13110)",
    "lat": 36.35365,
    "lng": 127.498795,
    "passengers": 212
  },
  {
    "name": "요골(13120)",
    "lat": 36.3569,
    "lng": 127.4994,
    "passengers": 139
  },
  {
    "name": "요골(13130)",
    "lat": 36.356995,
    "lng": 127.49961,
    "passengers": 99
  },
  {
    "name": "비금마을(13140)",
    "lat": 36.362263,
    "lng": 127.50065,
    "passengers": 243
  },
  {
    "name": "래미안아파트1단지(31490)",
    "lat": 36.33184,
    "lng": 127.385284,
    "passengers": 24345
  },
  {
    "name": "비금마을(13150)",
    "lat": 36.362183,
    "lng": 127.50078,
    "passengers": 193
  },
  {
    "name": "래미안아파트1단지(31510)",
    "lat": 36.332397,
    "lng": 127.38538,
    "passengers": 14370
  },
  {
    "name": "서우아파트1단지(31580)",
    "lat": 36.334286,
    "lng": 127.36974,
    "passengers": 15023
  },
  {
    "name": "신절골(13160)",
    "lat": 36.365864,
    "lng": 127.503334,
    "passengers": 158
  },
  {
    "name": "신절골(13170)",
    "lat": 36.3657,
    "lng": 127.50337,
    "passengers": 179
  },
  {
    "name": "구절골(13180)",
    "lat": 36.36915,
    "lng": 127.507225,
    "passengers": 291
  },
  {
    "name": "구절골(13190)",
    "lat": 36.369045,
    "lng": 127.50731,
    "passengers": 262
  },
  {
    "name": "안아감마을(13200)",
    "lat": 36.353203,
    "lng": 127.51595,
    "passengers": 351
  },
  {
    "name": "신촌동(13210)",
    "lat": 36.372463,
    "lng": 127.50994,
    "passengers": 140
  },
  {
    "name": "신촌동(13220)",
    "lat": 36.3722,
    "lng": 127.51009,
    "passengers": 93
  },
  {
    "name": "모래재(13230)",
    "lat": 36.38136,
    "lng": 127.515526,
    "passengers": 125
  },
  {
    "name": "모래재(13240)",
    "lat": 36.38123,
    "lng": 127.51561,
    "passengers": 105
  },
  {
    "name": "사성동(13250)",
    "lat": 36.386623,
    "lng": 127.51896,
    "passengers": 11
  },
  {
    "name": "사성동(13260)",
    "lat": 36.386387,
    "lng": 127.51916,
    "passengers": 13
  },
  {
    "name": "방아실입구.와정리(13270)",
    "lat": 36.390972,
    "lng": 127.53104,
    "passengers": 259
  },
  {
    "name": "방아실입구.와정리(13280)",
    "lat": 36.390873,
    "lng": 127.531204,
    "passengers": 369
  },
  {
    "name": "토망대(13290)",
    "lat": 36.417072,
    "lng": 127.53016,
    "passengers": 87
  },
  {
    "name": "토망대.오동(13300)",
    "lat": 36.416924,
    "lng": 127.53055,
    "passengers": 66
  },
  {
    "name": "오동(13310)",
    "lat": 36.416,
    "lng": 127.53332,
    "passengers": 126
  },
  {
    "name": "오동(13320)",
    "lat": 36.41605,
    "lng": 127.533936,
    "passengers": 104
  },
  {
    "name": "느리울13단지(33550)",
    "lat": 36.296593,
    "lng": 127.33983,
    "passengers": 12761
  },
  {
    "name": "느리울13단지(33570)",
    "lat": 36.2969,
    "lng": 127.33983,
    "passengers": 3944
  },
  {
    "name": "주촌동(13350)",
    "lat": 36.397038,
    "lng": 127.53184,
    "passengers": 106
  },
  {
    "name": "느리울13단지(35260)",
    "lat": 36.297474,
    "lng": 127.34458,
    "passengers": 3742
  },
  {
    "name": "주촌동(13360)",
    "lat": 36.396904,
    "lng": 127.5319,
    "passengers": 106
  },
  {
    "name": "산내주공아파트(13390)",
    "lat": 36.28429,
    "lng": 127.466095,
    "passengers": 957
  },
  {
    "name": "평촌1통마을회관(33940)",
    "lat": 36.239246,
    "lng": 127.31823,
    "passengers": 778
  },
  {
    "name": "평촌1통마을회관(33950)",
    "lat": 36.23916,
    "lng": 127.31829,
    "passengers": 763
  },
  {
    "name": "용촌1통(33980)",
    "lat": 36.24924,
    "lng": 127.32297,
    "passengers": 97
  },
  {
    "name": "용촌1통(33990)",
    "lat": 36.249195,
    "lng": 127.3232,
    "passengers": 110
  },
  {
    "name": "산내주공아파트(13400)",
    "lat": 36.283302,
    "lng": 127.46642,
    "passengers": 11169
  },
  {
    "name": "석천들마을아파트(13410)",
    "lat": 36.27638,
    "lng": 127.467415,
    "passengers": 13031
  },
  {
    "name": "석천들마을아파트(13420)",
    "lat": 36.276493,
    "lng": 127.46816,
    "passengers": 9109
  },
  {
    "name": "원정1통마을회관(34360)",
    "lat": 36.25784,
    "lng": 127.30171,
    "passengers": 231
  },
  {
    "name": "봉곡1통(34420)",
    "lat": 36.273205,
    "lng": 127.325714,
    "passengers": 45
  },
  {
    "name": "봉곡1통(34430)",
    "lat": 36.273228,
    "lng": 127.32586,
    "passengers": 32
  },
  {
    "name": "산내초등학교(13450)",
    "lat": 36.278748,
    "lng": 127.46878,
    "passengers": 13082
  },
  {
    "name": "산내초등학교(13460)",
    "lat": 36.278145,
    "lng": 127.46925,
    "passengers": 18186
  },
  {
    "name": "안대별(13470)",
    "lat": 36.286953,
    "lng": 127.45505,
    "passengers": 29
  },
  {
    "name": "안대별(13480)",
    "lat": 36.28701,
    "lng": 127.45505,
    "passengers": 108
  },
  {
    "name": "토토자연학습원(13490)",
    "lat": 36.285057,
    "lng": 127.45818,
    "passengers": 147
  },
  {
    "name": "토토자연학습원(13500)",
    "lat": 36.28513,
    "lng": 127.45837,
    "passengers": 38
  },
  {
    "name": "이사동입구(13510)",
    "lat": 36.287285,
    "lng": 127.458725,
    "passengers": 127
  },
  {
    "name": "이사동입구(13520)",
    "lat": 36.28728,
    "lng": 127.45868,
    "passengers": 79
  },
  {
    "name": "면허시험장(13530)",
    "lat": 36.28967,
    "lng": 127.46193,
    "passengers": 184
  },
  {
    "name": "면허시험장(13540)",
    "lat": 36.28984,
    "lng": 127.46209,
    "passengers": 364
  },
  {
    "name": "원정1통마을회관(35420)",
    "lat": 36.2579,
    "lng": 127.3018,
    "passengers": 189
  },
  {
    "name": "관저더샵1단지(35570)",
    "lat": 36.29383,
    "lng": 127.32778,
    "passengers": 1989
  },
  {
    "name": "이사동(13560)",
    "lat": 36.286053,
    "lng": 127.446434,
    "passengers": 26
  },
  {
    "name": "이사동상사(13561)",
    "lat": 36.281803,
    "lng": 127.443146,
    "passengers": 276
  },
  {
    "name": "은어송하늘채리버뷰(13590)",
    "lat": 36.298847,
    "lng": 127.45835,
    "passengers": 4687
  },
  {
    "name": "대성삼거리(13600)",
    "lat": 36.2963,
    "lng": 127.45936,
    "passengers": 6652
  },
  {
    "name": "대성삼거리(13610)",
    "lat": 36.29606,
    "lng": 127.4596,
    "passengers": 5570
  },
  {
    "name": "고산사입구(13620)",
    "lat": 36.296646,
    "lng": 127.46001,
    "passengers": 8101
  },
  {
    "name": "고산사입구(13630)",
    "lat": 36.2969,
    "lng": 127.460045,
    "passengers": 8712
  },
  {
    "name": "대성동(13650)",
    "lat": 36.294106,
    "lng": 127.461685,
    "passengers": 624
  },
  {
    "name": "운전면허시험장(13660)",
    "lat": 36.29111,
    "lng": 127.46269,
    "passengers": 7457
  },
  {
    "name": "운전면허시험장(13670)",
    "lat": 36.290543,
    "lng": 127.46309,
    "passengers": 7596
  },
  {
    "name": "오투그란데아파트(13680)",
    "lat": 36.287144,
    "lng": 127.464775,
    "passengers": 10132
  },
  {
    "name": "오투그란데아파트(13690)",
    "lat": 36.28764,
    "lng": 127.464714,
    "passengers": 21978
  },
  {
    "name": "장척동(13700)",
    "lat": 36.255253,
    "lng": 127.43597,
    "passengers": 215
  },
  {
    "name": "장척동(13710)",
    "lat": 36.2553,
    "lng": 127.43621,
    "passengers": 290
  },
  {
    "name": "소호동(13740)",
    "lat": 36.264137,
    "lng": 127.44959,
    "passengers": 121
  },
  {
    "name": "소호동(13750)",
    "lat": 36.26409,
    "lng": 127.44974,
    "passengers": 121
  },
  {
    "name": "소리.말미(13760)",
    "lat": 36.267864,
    "lng": 127.45189,
    "passengers": 77
  },
  {
    "name": "소리.말미(13770)",
    "lat": 36.267746,
    "lng": 127.452065,
    "passengers": 79
  },
  {
    "name": "남대전종합물류단지(13780)",
    "lat": 36.272915,
    "lng": 127.47184,
    "passengers": 2274
  },
  {
    "name": "남대전종합물류단지(13790)",
    "lat": 36.272728,
    "lng": 127.47134,
    "passengers": 1981
  },
  {
    "name": "구도동(13800)",
    "lat": 36.273685,
    "lng": 127.47303,
    "passengers": 554
  },
  {
    "name": "구도동(13810)",
    "lat": 36.273636,
    "lng": 127.47339,
    "passengers": 157
  },
  {
    "name": "낭월공영차고지(13820)",
    "lat": 36.268803,
    "lng": 127.47771,
    "passengers": 15
  },
  {
    "name": "낭월공영차고지(13820)",
    "lat": 36.270203,
    "lng": 127.47669,
    "passengers": 365
  },
  {
    "name": "하소룡골(13830)",
    "lat": 36.242985,
    "lng": 127.46105,
    "passengers": 44
  },
  {
    "name": "상소동산림욕장(13840)",
    "lat": 36.23811,
    "lng": 127.46818,
    "passengers": 688
  },
  {
    "name": "상소동산림욕장(13850)",
    "lat": 36.238365,
    "lng": 127.46839,
    "passengers": 775
  },
  {
    "name": "소룡골입구(13860)",
    "lat": 36.244564,
    "lng": 127.4736,
    "passengers": 789
  },
  {
    "name": "소룡골입구(13870)",
    "lat": 36.244488,
    "lng": 127.47372,
    "passengers": 323
  },
  {
    "name": "공주마을(13880)",
    "lat": 36.252056,
    "lng": 127.47736,
    "passengers": 445
  },
  {
    "name": "공주마을(13890)",
    "lat": 36.252087,
    "lng": 127.47752,
    "passengers": 904
  },
  {
    "name": "삼괴동/송촌마을(13900)",
    "lat": 36.254787,
    "lng": 127.47794,
    "passengers": 374
  },
  {
    "name": "삼괴동/송촌마을(13910)",
    "lat": 36.254814,
    "lng": 127.47807,
    "passengers": 310
  },
  {
    "name": "삼괴동/덕산마을(13920)",
    "lat": 36.258083,
    "lng": 127.47912,
    "passengers": 716
  },
  {
    "name": "삼괴동/덕산마을(13930)",
    "lat": 36.25751,
    "lng": 127.478935,
    "passengers": 761
  },
  {
    "name": "산흥초등학교(13940)",
    "lat": 36.227905,
    "lng": 127.44764,
    "passengers": 1089
  },
  {
    "name": "산흥초등학교(13950)",
    "lat": 36.228016,
    "lng": 127.44788,
    "passengers": 1077
  },
  {
    "name": "상소동(노인병원)(13960)",
    "lat": 36.229843,
    "lng": 127.45482,
    "passengers": 71
  },
  {
    "name": "상소동(노인병원)(13970)",
    "lat": 36.230034,
    "lng": 127.45492,
    "passengers": 1375
  },
  {
    "name": "산정마을(13980)",
    "lat": 36.234413,
    "lng": 127.46263,
    "passengers": 219
  },
  {
    "name": "산정마을(13990)",
    "lat": 36.234993,
    "lng": 127.463135,
    "passengers": 1336
  },
  {
    "name": "가목정마을(14000)",
    "lat": 36.210876,
    "lng": 127.438705,
    "passengers": 268
  },
  {
    "name": "가목정마을(14010)",
    "lat": 36.210796,
    "lng": 127.43885,
    "passengers": 326
  },
  {
    "name": "성북1통마을회관(40510)",
    "lat": 36.31185,
    "lng": 127.289406,
    "passengers": 267
  },
  {
    "name": "성북1통마을회관(40520)",
    "lat": 36.31183,
    "lng": 127.289505,
    "passengers": 275
  },
  {
    "name": "만인산공원(14070)",
    "lat": 36.204174,
    "lng": 127.44241,
    "passengers": 509
  },
  {
    "name": "만인산공원(14080)",
    "lat": 36.20359,
    "lng": 127.443375,
    "passengers": 622
  },
  {
    "name": "성북1통(40800)",
    "lat": 36.31458,
    "lng": 127.28457,
    "passengers": 138
  },
  {
    "name": "송정1통(40860)",
    "lat": 36.279114,
    "lng": 127.25645,
    "passengers": 44
  },
  {
    "name": "송정1통(40870)",
    "lat": 36.27987,
    "lng": 127.25586,
    "passengers": 248
  },
  {
    "name": "청소년수련원(14090)",
    "lat": 36.226437,
    "lng": 127.4451,
    "passengers": 871
  },
  {
    "name": "방동1통(40920)",
    "lat": 36.27028,
    "lng": 127.27361,
    "passengers": 16
  },
  {
    "name": "방동1통(40930)",
    "lat": 36.270863,
    "lng": 127.27326,
    "passengers": 60
  },
  {
    "name": "방동1통(40940)",
    "lat": 36.27324,
    "lng": 127.2741,
    "passengers": 177
  },
  {
    "name": "방동1통(40950)",
    "lat": 36.27322,
    "lng": 127.274216,
    "passengers": 133
  },
  {
    "name": "청소년수련원(14100)",
    "lat": 36.226402,
    "lng": 127.445244,
    "passengers": 781
  },
  {
    "name": "만인산휴양림(14110)",
    "lat": 36.200634,
    "lng": 127.44938,
    "passengers": 1445
  },
  {
    "name": "만인산휴양림(14120)",
    "lat": 36.20075,
    "lng": 127.44946,
    "passengers": 1511
  },
  {
    "name": "온천1동주민센터(41220)",
    "lat": 36.35292,
    "lng": 127.338425,
    "passengers": 919
  },
  {
    "name": "홈플러스가오점(14130)",
    "lat": 36.305607,
    "lng": 127.45799,
    "passengers": 16263
  },
  {
    "name": "홈플러스가오점(14140)",
    "lat": 36.30583,
    "lng": 127.45812,
    "passengers": 14067
  },
  {
    "name": "현충원역1번출구(41460)",
    "lat": 36.35935,
    "lng": 127.32171,
    "passengers": 45466
  },
  {
    "name": "대별동(14150)",
    "lat": 36.27919,
    "lng": 127.456856,
    "passengers": 19
  },
  {
    "name": "대별동(14160)",
    "lat": 36.279118,
    "lng": 127.45696,
    "passengers": 14
  },
  {
    "name": "효동주민센터(14170)",
    "lat": 36.317066,
    "lng": 127.44264,
    "passengers": 1932
  },
  {
    "name": "천동초등학교(14180)",
    "lat": 36.315693,
    "lng": 127.44458,
    "passengers": 6026
  },
  {
    "name": "천동초등학교(14190)",
    "lat": 36.315994,
    "lng": 127.444725,
    "passengers": 5418
  },
  {
    "name": "천동휴먼시아(14200)",
    "lat": 36.3136,
    "lng": 127.4456,
    "passengers": 4496
  },
  {
    "name": "천동휴먼시아(14210)",
    "lat": 36.3141,
    "lng": 127.44559,
    "passengers": 7068
  },
  {
    "name": "대전역네거리(14230)",
    "lat": 36.331043,
    "lng": 127.431854,
    "passengers": 34760
  },
  {
    "name": "세정골(14240)",
    "lat": 36.332314,
    "lng": 127.49233,
    "passengers": 210
  },
  {
    "name": "대전대학교(14250)",
    "lat": 36.33303,
    "lng": 127.46375,
    "passengers": 1735
  },
  {
    "name": "대전역/역전시장(14270)",
    "lat": 36.33012,
    "lng": 127.433365,
    "passengers": 30721
  },
  {
    "name": "우송대동캠퍼스(14280)",
    "lat": 36.33291,
    "lng": 127.453545,
    "passengers": 10244
  },
  {
    "name": "이사동(14290)",
    "lat": 36.286068,
    "lng": 127.44632,
    "passengers": 60
  },
  {
    "name": "이사동하사(14300)",
    "lat": 36.286423,
    "lng": 127.448326,
    "passengers": 69
  },
  {
    "name": "이사동하사(14310)",
    "lat": 36.286327,
    "lng": 127.44834,
    "passengers": 38
  },
  {
    "name": "상소룡골(14320)",
    "lat": 36.242577,
    "lng": 127.4548,
    "passengers": 59
  },
  {
    "name": "상소룡골(14320)",
    "lat": 36.242847,
    "lng": 127.45402,
    "passengers": 144
  },
  {
    "name": "하소룡골(14330)",
    "lat": 36.24285,
    "lng": 127.46102,
    "passengers": 40
  },
  {
    "name": "가오고등학교(14340)",
    "lat": 36.309856,
    "lng": 127.45482,
    "passengers": 5934
  },
  {
    "name": "가오고등학교(14350)",
    "lat": 36.309402,
    "lng": 127.45509,
    "passengers": 5636
  },
  {
    "name": "가오동(14360)",
    "lat": 36.308586,
    "lng": 127.45133,
    "passengers": 707
  },
  {
    "name": "가는골입구(14370)",
    "lat": 36.330944,
    "lng": 127.486,
    "passengers": 52
  },
  {
    "name": "가는골입구(14380)",
    "lat": 36.331093,
    "lng": 127.48584,
    "passengers": 102
  },
  {
    "name": "안산1통(43800)",
    "lat": 36.41061,
    "lng": 127.29953,
    "passengers": 515
  },
  {
    "name": "외삼1통(43830)",
    "lat": 36.398476,
    "lng": 127.31015,
    "passengers": 978
  },
  {
    "name": "국제금식기도원(14390)",
    "lat": 36.374973,
    "lng": 127.513626,
    "passengers": 57
  },
  {
    "name": "송림마을1단지(43990)",
    "lat": 36.388508,
    "lng": 127.31767,
    "passengers": 1497
  },
  {
    "name": "국제금식기도원(14400)",
    "lat": 36.375027,
    "lng": 127.51353,
    "passengers": 12
  },
  {
    "name": "바깥아감(14410)",
    "lat": 36.35206,
    "lng": 127.49845,
    "passengers": 27
  },
  {
    "name": "세천공원(14420)",
    "lat": 36.33067,
    "lng": 127.4813,
    "passengers": 537
  },
  {
    "name": "탑립1통(44290)",
    "lat": 36.40883,
    "lng": 127.39574,
    "passengers": 929
  },
  {
    "name": "세천공원(14430)",
    "lat": 36.330853,
    "lng": 127.48133,
    "passengers": 483
  },
  {
    "name": "탑립1통(44300)",
    "lat": 36.408726,
    "lng": 127.39604,
    "passengers": 748
  },
  {
    "name": "탑립1통(44300)",
    "lat": 36.40894,
    "lng": 127.39585,
    "passengers": 77
  },
  {
    "name": "탑립1통산의절(44310)",
    "lat": 36.409542,
    "lng": 127.39847,
    "passengers": 264
  },
  {
    "name": "탑립1통산의절(44320)",
    "lat": 36.40971,
    "lng": 127.39842,
    "passengers": 319
  },
  {
    "name": "감나무골입구(14440)",
    "lat": 36.28203,
    "lng": 127.45755,
    "passengers": 14
  },
  {
    "name": "감나무골입구(14450)",
    "lat": 36.282116,
    "lng": 127.457695,
    "passengers": 17
  },
  {
    "name": "효평고개소공원(14460)",
    "lat": 36.39268,
    "lng": 127.475845,
    "passengers": 32
  },
  {
    "name": "효평고개소공원(14470)",
    "lat": 36.392544,
    "lng": 127.475815,
    "passengers": 16
  },
  {
    "name": "금고1통(44920)",
    "lat": 36.46376,
    "lng": 127.390366,
    "passengers": 7
  },
  {
    "name": "금고1통(44940)",
    "lat": 36.46384,
    "lng": 127.390465,
    "passengers": 7
  },
  {
    "name": "대동1통(44980)",
    "lat": 36.4853,
    "lng": 127.39512,
    "passengers": 137
  },
  {
    "name": "대동1통(44990)",
    "lat": 36.48537,
    "lng": 127.395164,
    "passengers": 131
  },
  {
    "name": "지푸재(14500)",
    "lat": 36.270527,
    "lng": 127.4513,
    "passengers": 23
  },
  {
    "name": "지푸재(14510)",
    "lat": 36.270634,
    "lng": 127.45119,
    "passengers": 41
  },
  {
    "name": "대전대학교동문(14520)",
    "lat": 36.335354,
    "lng": 127.4638,
    "passengers": 8693
  },
  {
    "name": "대전대학교동문(14530)",
    "lat": 36.33537,
    "lng": 127.46358,
    "passengers": 8900
  },
  {
    "name": "현암시장(14550)",
    "lat": 36.342278,
    "lng": 127.416336,
    "passengers": 3869
  },
  {
    "name": "대전시립제1노인병원(45560)",
    "lat": 36.406475,
    "lng": 127.372154,
    "passengers": 521
  },
  {
    "name": "양구례마을(14560)",
    "lat": 36.40522,
    "lng": 127.49181,
    "passengers": 68
  },
  {
    "name": "양구례마을(14570)",
    "lat": 36.405228,
    "lng": 127.491714,
    "passengers": 61
  },
  {
    "name": "세천공원삼거리(14580)",
    "lat": 36.347797,
    "lng": 127.49798,
    "passengers": 47
  },
  {
    "name": "한밭자이아파트(14590)",
    "lat": 36.340706,
    "lng": 127.42624,
    "passengers": 19117
  },
  {
    "name": "한밭자이아파트(14600)",
    "lat": 36.341194,
    "lng": 127.425095,
    "passengers": 20729
  },
  {
    "name": "안산1통(46030)",
    "lat": 36.410435,
    "lng": 127.299576,
    "passengers": 590
  },
  {
    "name": "솔랑마을아파트(14610)",
    "lat": 36.343445,
    "lng": 127.42238,
    "passengers": 15094
  },
  {
    "name": "솔랑마을아파트(14620)",
    "lat": 36.343925,
    "lng": 127.42126,
    "passengers": 15959
  },
  {
    "name": "대전역동광장(14630)",
    "lat": 36.333817,
    "lng": 127.43729,
    "passengers": 16582
  },
  {
    "name": "트리풀시티포레1단지(46300)",
    "lat": 36.381172,
    "lng": 127.30612,
    "passengers": 5432
  },
  {
    "name": "동구아름다운복지관(14640)",
    "lat": 36.26829,
    "lng": 127.47178,
    "passengers": 495
  },
  {
    "name": "성북1통(46410)",
    "lat": 36.31466,
    "lng": 127.28468,
    "passengers": 146
  },
  {
    "name": "동구아름다운복지관(14650)",
    "lat": 36.26814,
    "lng": 127.471855,
    "passengers": 512
  },
  {
    "name": "온누리노인요양원(14660)",
    "lat": 36.28661,
    "lng": 127.45135,
    "passengers": 126
  },
  {
    "name": "온누리노인요양원(14670)",
    "lat": 36.28656,
    "lng": 127.4514,
    "passengers": 52
  },
  {
    "name": "용수골(14680)",
    "lat": 36.333828,
    "lng": 127.455536,
    "passengers": 5000
  },
  {
    "name": "유성온천역1번출구(46850)",
    "lat": 36.352802,
    "lng": 127.34395,
    "passengers": 14444
  },
  {
    "name": "홍도치안센터(14690)",
    "lat": 36.34656,
    "lng": 127.42596,
    "passengers": 8471
  },
  {
    "name": "홍도치안센터(14700)",
    "lat": 36.34646,
    "lng": 127.42565,
    "passengers": 7906
  },
  {
    "name": "서한이다음1단지(47020)",
    "lat": 36.45539,
    "lng": 127.36401,
    "passengers": 4411
  },
  {
    "name": "동산지하차도(14710)",
    "lat": 36.345478,
    "lng": 127.42164,
    "passengers": 2757
  },
  {
    "name": "동산지하차도(14720)",
    "lat": 36.34561,
    "lng": 127.422134,
    "passengers": 2750
  },
  {
    "name": "대전역(14730)",
    "lat": 36.332798,
    "lng": 127.43197,
    "passengers": 52452
  },
  {
    "name": "판암역종점(14740)",
    "lat": 36.316776,
    "lng": 127.458565,
    "passengers": 457
  },
  {
    "name": "옛터민속박물관(14750)",
    "lat": 36.21437,
    "lng": 127.44132,
    "passengers": 617
  },
  {
    "name": "옛터민속박물관(14760)",
    "lat": 36.21416,
    "lng": 127.441246,
    "passengers": 527
  },
  {
    "name": "산내주공아파트(14770)",
    "lat": 36.283936,
    "lng": 127.465675,
    "passengers": 79
  },
  {
    "name": "오투그란데아파트(14780)",
    "lat": 36.287674,
    "lng": 127.46359,
    "passengers": 4
  },
  {
    "name": "솔랑마을아파트(14790)",
    "lat": 36.343876,
    "lng": 127.4214,
    "passengers": 4485
  },
  {
    "name": "솔랑마을아파트(14800)",
    "lat": 36.34341,
    "lng": 127.42241,
    "passengers": 4717
  },
  {
    "name": "산정마을종점(14810)",
    "lat": 36.23442,
    "lng": 127.45493,
    "passengers": 31
  },
  {
    "name": "우송중고등학교(14820)",
    "lat": 36.334812,
    "lng": 127.44208,
    "passengers": 3866
  },
  {
    "name": "대성여자중고등학교(14830)",
    "lat": 36.336617,
    "lng": 127.44302,
    "passengers": 2653
  },
  {
    "name": "우송대학교서캠퍼스(14840)",
    "lat": 36.338306,
    "lng": 127.44476,
    "passengers": 9096
  },
  {
    "name": "우송대학교서캠퍼스(14850)",
    "lat": 36.339024,
    "lng": 127.44515,
    "passengers": 10312
  },
  {
    "name": "자양동(14860)",
    "lat": 36.34075,
    "lng": 127.44717,
    "passengers": 2367
  },
  {
    "name": "대주파크빌(14870)",
    "lat": 36.341404,
    "lng": 127.44756,
    "passengers": 3520
  },
  {
    "name": "홍도아파트(14880)",
    "lat": 36.3443,
    "lng": 127.42787,
    "passengers": 5780
  },
  {
    "name": "대룡초등학교(14890)",
    "lat": 36.329937,
    "lng": 127.45479,
    "passengers": 1453
  },
  {
    "name": "팽나무수변공원(14900)",
    "lat": 36.270218,
    "lng": 127.47148,
    "passengers": 139
  },
  {
    "name": "팽나무수변공원(14910)",
    "lat": 36.27021,
    "lng": 127.47135,
    "passengers": 212
  },
  {
    "name": "남대전물류단지(14920)",
    "lat": 36.271667,
    "lng": 127.468864,
    "passengers": 237
  },
  {
    "name": "남대전물류단지(14930)",
    "lat": 36.271603,
    "lng": 127.46878,
    "passengers": 389
  },
  {
    "name": "문글램핑(14940)",
    "lat": 36.208225,
    "lng": 127.44033,
    "passengers": 191
  },
  {
    "name": "문글램핑(14950)",
    "lat": 36.20848,
    "lng": 127.440315,
    "passengers": 132
  },
  {
    "name": "장동1구(52480)",
    "lat": 36.415207,
    "lng": 127.44043,
    "passengers": 509
  },
  {
    "name": "장동1구(52490)",
    "lat": 36.415222,
    "lng": 127.440605,
    "passengers": 459
  },
  {
    "name": "신양1리(72210)",
    "lat": 36.215927,
    "lng": 127.2888,
    "passengers": 59
  },
  {
    "name": "신양1리(72220)",
    "lat": 36.216053,
    "lng": 127.288864,
    "passengers": 121
  },
  {
    "name": "조동1리(72250)",
    "lat": 36.222454,
    "lng": 127.295364,
    "passengers": 426
  },
  {
    "name": "조동1리(72260)",
    "lat": 36.222614,
    "lng": 127.295296,
    "passengers": 435
  },
  {
    "name": "사정1리(72310)",
    "lat": 36.196377,
    "lng": 127.28477,
    "passengers": 19
  },
  {
    "name": "사정1리(72320)",
    "lat": 36.1965,
    "lng": 127.28475,
    "passengers": 56
  },
  {
    "name": "수락1리(72540)",
    "lat": 36.154194,
    "lng": 127.30752,
    "passengers": 100
  },
  {
    "name": "수락1리(72550)",
    "lat": 36.15419,
    "lng": 127.30772,
    "passengers": 71
  },
  {
    "name": "지량1리(74010)",
    "lat": 36.247307,
    "lng": 127.37038,
    "passengers": 340
  },
  {
    "name": "지량1리(74020)",
    "lat": 36.24741,
    "lng": 127.37054,
    "passengers": 286
  },
  {
    "name": "신대1리(74190)",
    "lat": 36.21294,
    "lng": 127.37694,
    "passengers": 407
  },
  {
    "name": "신대1리(74200)",
    "lat": 36.212894,
    "lng": 127.37715,
    "passengers": 369
  },
  {
    "name": "구례1리(74270)",
    "lat": 36.201187,
    "lng": 127.37899,
    "passengers": 205
  },
  {
    "name": "구례1리(74280)",
    "lat": 36.201374,
    "lng": 127.379135,
    "passengers": 201
  },
  {
    "name": "수영1리(74420)",
    "lat": 36.173527,
    "lng": 127.39248,
    "passengers": 330
  },
  {
    "name": "수영1리(74430)",
    "lat": 36.173374,
    "lng": 127.39275,
    "passengers": 345
  },
  {
    "name": "황용리(황용1교)(75330)",
    "lat": 36.479786,
    "lng": 127.321045,
    "passengers": 98
  },
  {
    "name": "황용리(황용1교)(75340)",
    "lat": 36.479687,
    "lng": 127.321,
    "passengers": 13
  },
  {
    "name": "복용1통(82380)",
    "lat": 36.343098,
    "lng": 127.31787,
    "passengers": 330
  },
  {
    "name": "복용1통(82390)",
    "lat": 36.34295,
    "lng": 127.31758,
    "passengers": 227
  },
  {
    "name": "휴먼시아 1단지(82550)",
    "lat": 36.437954,
    "lng": 127.382324,
    "passengers": 979
  },
  {
    "name": "으능정이거리(20050)",
    "lat": 36.3291,
    "lng": 127.427444,
    "passengers": 137138
  },
  {
    "name": "으능정이거리(20060)",
    "lat": 36.329636,
    "lng": 127.42795,
    "passengers": 59891
  },
  {
    "name": "으능정이거리(20070)",
    "lat": 36.32934,
    "lng": 127.42811,
    "passengers": 45806
  },
  {
    "name": "호수돈여고(20080)",
    "lat": 36.327415,
    "lng": 127.41484,
    "passengers": 4841
  },
  {
    "name": "중촌네거리(20090)",
    "lat": 36.335857,
    "lng": 127.41527,
    "passengers": 9445
  },
  {
    "name": "목동더샵리슈빌(20100)",
    "lat": 36.33311,
    "lng": 127.41556,
    "passengers": 7112
  },
  {
    "name": "은행선화동주민센터(20110)",
    "lat": 36.332493,
    "lng": 127.41676,
    "passengers": 5418
  },
  {
    "name": "중앙초등학교(20120)",
    "lat": 36.328724,
    "lng": 127.416374,
    "passengers": 4105
  },
  {
    "name": "선화동천주교회(20130)",
    "lat": 36.335632,
    "lng": 127.41735,
    "passengers": 18328
  },
  {
    "name": "세명요양병원(20140)",
    "lat": 36.33509,
    "lng": 127.417625,
    "passengers": 20951
  },
  {
    "name": "중구국민체육센터(20150)",
    "lat": 36.329464,
    "lng": 127.41839,
    "passengers": 5680
  },
  {
    "name": "중구청역(20170)",
    "lat": 36.3243,
    "lng": 127.418655,
    "passengers": 29739
  },
  {
    "name": "국립농산물품질관리원(20180)",
    "lat": 36.330883,
    "lng": 127.419235,
    "passengers": 10859
  },
  {
    "name": "국립농산물품질관리원(20200)",
    "lat": 36.330765,
    "lng": 127.41955,
    "passengers": 8215
  },
  {
    "name": "대전여상(20230)",
    "lat": 36.332947,
    "lng": 127.420784,
    "passengers": 12244
  },
  {
    "name": "대종로네거리(20240)",
    "lat": 36.334377,
    "lng": 127.42098,
    "passengers": 1253
  },
  {
    "name": "대전여상(20250)",
    "lat": 36.33234,
    "lng": 127.42104,
    "passengers": 12623
  },
  {
    "name": "대종로네거리(20260)",
    "lat": 36.334106,
    "lng": 127.42106,
    "passengers": 1308
  },
  {
    "name": "대전테크노파크(20270)",
    "lat": 36.327652,
    "lng": 127.42272,
    "passengers": 17106
  },
  {
    "name": "선화동우체국(20290)",
    "lat": 36.328003,
    "lng": 127.42371,
    "passengers": 22520
  },
  {
    "name": "목양마을아파트후문(20320)",
    "lat": 36.33567,
    "lng": 127.403465,
    "passengers": 921
  },
  {
    "name": "목양마을아파트(20330)",
    "lat": 36.334106,
    "lng": 127.407425,
    "passengers": 5951
  },
  {
    "name": "목동동대전농협(20340)",
    "lat": 36.33465,
    "lng": 127.40737,
    "passengers": 6405
  },
  {
    "name": "선병원(20360)",
    "lat": 36.33753,
    "lng": 127.40931,
    "passengers": 8916
  },
  {
    "name": "대성중고등학교(20370)",
    "lat": 36.33136,
    "lng": 127.4099,
    "passengers": 18911
  },
  {
    "name": "충남여자중고등학교(20380)",
    "lat": 36.33083,
    "lng": 127.409966,
    "passengers": 14856
  },
  {
    "name": "충남여중삼거리(20390)",
    "lat": 36.332115,
    "lng": 127.41001,
    "passengers": 1842
  },
  {
    "name": "한사랑아파트(20400)",
    "lat": 36.33327,
    "lng": 127.412125,
    "passengers": 21453
  },
  {
    "name": "목동네거리(20410)",
    "lat": 36.33376,
    "lng": 127.412186,
    "passengers": 23067
  },
  {
    "name": "목동네거리(20420)",
    "lat": 36.334953,
    "lng": 127.4127,
    "passengers": 13116
  },
  {
    "name": "하늘아파트(20450)",
    "lat": 36.338833,
    "lng": 127.40783,
    "passengers": 8471
  },
  {
    "name": "선병원(20460)",
    "lat": 36.337505,
    "lng": 127.40965,
    "passengers": 10045
  },
  {
    "name": "중촌초등학교(20470)",
    "lat": 36.34149,
    "lng": 127.410034,
    "passengers": 21072
  },
  {
    "name": "중촌초등학교(20480)",
    "lat": 36.341076,
    "lng": 127.41007,
    "passengers": 28118
  },
  {
    "name": "목동네거리(20500)",
    "lat": 36.335426,
    "lng": 127.412254,
    "passengers": 11216
  },
  {
    "name": "중앙중고등학교(20510)",
    "lat": 36.339115,
    "lng": 127.413025,
    "passengers": 27991
  },
  {
    "name": "중촌동행정복지센터(20520)",
    "lat": 36.338676,
    "lng": 127.41313,
    "passengers": 27088
  },
  {
    "name": "중촌네거리(20530)",
    "lat": 36.33596,
    "lng": 127.41483,
    "passengers": 13559
  },
  {
    "name": "테미삼거리(20540)",
    "lat": 36.31835,
    "lng": 127.4186,
    "passengers": 15769
  },
  {
    "name": "성모병원(20550)",
    "lat": 36.323353,
    "lng": 127.41863,
    "passengers": 7389
  },
  {
    "name": "테미삼거리(20560)",
    "lat": 36.318108,
    "lng": 127.419106,
    "passengers": 11458
  },
  {
    "name": "성모병원(20570)",
    "lat": 36.323917,
    "lng": 127.41935,
    "passengers": 14548
  },
  {
    "name": "대전광역시노인복지관(20580)",
    "lat": 36.320297,
    "lng": 127.42004,
    "passengers": 7747
  },
  {
    "name": "대전광역시노인복지관(20590)",
    "lat": 36.319736,
    "lng": 127.4201,
    "passengers": 8066
  },
  {
    "name": "중구청(20600)",
    "lat": 36.325672,
    "lng": 127.42091,
    "passengers": 46519
  },
  {
    "name": "성모오거리(20610)",
    "lat": 36.32343,
    "lng": 127.421,
    "passengers": 4114
  },
  {
    "name": "대고오거리(20620)",
    "lat": 36.323128,
    "lng": 127.42219,
    "passengers": 2732
  },
  {
    "name": "중구청(20630)",
    "lat": 36.32508,
    "lng": 127.42239,
    "passengers": 22266
  },
  {
    "name": "대고오거리(20640)",
    "lat": 36.324142,
    "lng": 127.42239,
    "passengers": 33826
  },
  {
    "name": "대고오거리(20650)",
    "lat": 36.323544,
    "lng": 127.4229,
    "passengers": 29920
  },
  {
    "name": "대전도시공사(20660)",
    "lat": 36.327515,
    "lng": 127.42313,
    "passengers": 21491
  },
  {
    "name": "테미고개(20670)",
    "lat": 36.318043,
    "lng": 127.42363,
    "passengers": 3347
  },
  {
    "name": "대전중학교(20690)",
    "lat": 36.319958,
    "lng": 127.42422,
    "passengers": 10615
  },
  {
    "name": "대전고등학교(20700)",
    "lat": 36.322884,
    "lng": 127.42433,
    "passengers": 6729
  },
  {
    "name": "대전중학교(20710)",
    "lat": 36.320004,
    "lng": 127.42453,
    "passengers": 3580
  },
  {
    "name": "보문오거리(20730)",
    "lat": 36.318443,
    "lng": 127.42512,
    "passengers": 11660
  },
  {
    "name": "보문오거리(20740)",
    "lat": 36.318096,
    "lng": 127.42571,
    "passengers": 13987
  },
  {
    "name": "대흥동네거리(20750)",
    "lat": 36.323833,
    "lng": 127.426285,
    "passengers": 7105
  },
  {
    "name": "대흥동성당(20760)",
    "lat": 36.327034,
    "lng": 127.42663,
    "passengers": 36689
  },
  {
    "name": "대흥동네거리(20770)",
    "lat": 36.32383,
    "lng": 127.42715,
    "passengers": 2295
  },
  {
    "name": "대흥동성당(20780)",
    "lat": 36.326145,
    "lng": 127.427505,
    "passengers": 27237
  },
  {
    "name": "오토바이거리(20790)",
    "lat": 36.322025,
    "lng": 127.42954,
    "passengers": 18010
  },
  {
    "name": "오토바이거리(20800)",
    "lat": 36.321606,
    "lng": 127.43011,
    "passengers": 16295
  },
  {
    "name": "대흥교(20810)",
    "lat": 36.325264,
    "lng": 127.43058,
    "passengers": 3003
  },
  {
    "name": "대흥교(20820)",
    "lat": 36.325047,
    "lng": 127.43089,
    "passengers": 3453
  },
  {
    "name": "문창동보문교(20830)",
    "lat": 36.320675,
    "lng": 127.4347,
    "passengers": 4390
  },
  {
    "name": "부사오거리(20840)",
    "lat": 36.31339,
    "lng": 127.43592,
    "passengers": 38358
  },
  {
    "name": "문창시장(20850)",
    "lat": 36.31454,
    "lng": 127.43825,
    "passengers": 24180
  },
  {
    "name": "문창시장(20860)",
    "lat": 36.314327,
    "lng": 127.43836,
    "passengers": 13748
  },
  {
    "name": "동명중학교(20870)",
    "lat": 36.311237,
    "lng": 127.43911,
    "passengers": 8563
  },
  {
    "name": "동명중학교(20880)",
    "lat": 36.310787,
    "lng": 127.43918,
    "passengers": 6476
  },
  {
    "name": "석교동행정복지센터(20890)",
    "lat": 36.309402,
    "lng": 127.44198,
    "passengers": 19842
  },
  {
    "name": "석교동행정복지센터(20900)",
    "lat": 36.309025,
    "lng": 127.443535,
    "passengers": 22932
  },
  {
    "name": "석교치안센터(20910)",
    "lat": 36.307796,
    "lng": 127.44515,
    "passengers": 6740
  },
  {
    "name": "석교치안센터(20920)",
    "lat": 36.307575,
    "lng": 127.44639,
    "passengers": 7299
  },
  {
    "name": "호동(20930)",
    "lat": 36.3047,
    "lng": 127.44925,
    "passengers": 15944
  },
  {
    "name": "호동(20940)",
    "lat": 36.303894,
    "lng": 127.45041,
    "passengers": 18009
  },
  {
    "name": "은혜아파트(20950)",
    "lat": 36.301357,
    "lng": 127.45215,
    "passengers": 8356
  },
  {
    "name": "은혜아파트(20960)",
    "lat": 36.301216,
    "lng": 127.452736,
    "passengers": 6436
  },
  {
    "name": "옥계동(20970)",
    "lat": 36.298992,
    "lng": 127.4542,
    "passengers": 8395
  },
  {
    "name": "옥계동(20980)",
    "lat": 36.29909,
    "lng": 127.454544,
    "passengers": 21773
  },
  {
    "name": "옥계동(20980)",
    "lat": 36.300472,
    "lng": 127.453384,
    "passengers": 7
  },
  {
    "name": "옥계교(20990)",
    "lat": 36.297256,
    "lng": 127.455696,
    "passengers": 4361
  },
  {
    "name": "문화동하우스토리(21000)",
    "lat": 36.31986,
    "lng": 127.41597,
    "passengers": 10365
  },
  {
    "name": "충대병원네거리(21010)",
    "lat": 36.31889,
    "lng": 127.41646,
    "passengers": 7451
  },
  {
    "name": "테미고개(21020)",
    "lat": 36.31779,
    "lng": 127.42311,
    "passengers": 3677
  },
  {
    "name": "보문오거리(21030)",
    "lat": 36.317078,
    "lng": 127.425064,
    "passengers": 14005
  },
  {
    "name": "남대전고등학교(21040)",
    "lat": 36.313843,
    "lng": 127.42812,
    "passengers": 12760
  },
  {
    "name": "은어송마을2단지(10450)",
    "lat": 36.303528,
    "lng": 127.45739,
    "passengers": 3721
  },
  {
    "name": "은어송마을2단지(10460)",
    "lat": 36.30254,
    "lng": 127.45944,
    "passengers": 1302
  },
  {
    "name": "한화생명이글스파크(21050)",
    "lat": 36.3183,
    "lng": 127.42844,
    "passengers": 7607
  },
  {
    "name": "남대전고등학교(21060)",
    "lat": 36.31431,
    "lng": 127.42818,
    "passengers": 7082
  },
  {
    "name": "청란여자고등학교(21070)",
    "lat": 36.313583,
    "lng": 127.43115,
    "passengers": 7709
  },
  {
    "name": "판암2동주민센터(10700)",
    "lat": 36.3198,
    "lng": 127.45705,
    "passengers": 6999
  },
  {
    "name": "청란여자고등학교(21080)",
    "lat": 36.313366,
    "lng": 127.430954,
    "passengers": 13445
  },
  {
    "name": "한밭종합운동장(21090)",
    "lat": 36.31635,
    "lng": 127.43282,
    "passengers": 16065
  },
  {
    "name": "용운주공2단지(10920)",
    "lat": 36.32833,
    "lng": 127.453545,
    "passengers": 20523
  },
  {
    "name": "한밭종합운동장(21100)",
    "lat": 36.317005,
    "lng": 127.432846,
    "passengers": 12139
  },
  {
    "name": "부사오거리(21110)",
    "lat": 36.31336,
    "lng": 127.43381,
    "passengers": 21688
  },
  {
    "name": "대동역2번출구(11170)",
    "lat": 36.328762,
    "lng": 127.44144,
    "passengers": 35436
  },
  {
    "name": "부사오거리(21120)",
    "lat": 36.31405,
    "lng": 127.43449,
    "passengers": 34667
  },
  {
    "name": "부사오거리(21130)",
    "lat": 36.312645,
    "lng": 127.43552,
    "passengers": 39559
  },
  {
    "name": "어덕마을종점(21140)",
    "lat": 36.33303,
    "lng": 127.401726,
    "passengers": 640
  },
  {
    "name": "어덕마을종점(21150)",
    "lat": 36.33308,
    "lng": 127.40213,
    "passengers": 768
  },
  {
    "name": "어덕마을종점(21150)",
    "lat": 36.33355,
    "lng": 127.40243,
    "passengers": 64
  },
  {
    "name": "중도일보(21190)",
    "lat": 36.326393,
    "lng": 127.408005,
    "passengers": 9974
  },
  {
    "name": "용두동주민센터(21210)",
    "lat": 36.325027,
    "lng": 127.41076,
    "passengers": 2640
  },
  {
    "name": "삼성2동(12170)",
    "lat": 36.339813,
    "lng": 127.416626,
    "passengers": 518
  },
  {
    "name": "서대전초등학교(21220)",
    "lat": 36.324917,
    "lng": 127.410934,
    "passengers": 3184
  },
  {
    "name": "호수돈여고(21230)",
    "lat": 36.32702,
    "lng": 127.41235,
    "passengers": 3352
  },
  {
    "name": "대전충남병무청(21240)",
    "lat": 36.322998,
    "lng": 127.41465,
    "passengers": 60266
  },
  {
    "name": "오류네거리(21270)",
    "lat": 36.32699,
    "lng": 127.40282,
    "passengers": 1672
  },
  {
    "name": "오류네거리(21280)",
    "lat": 36.32673,
    "lng": 127.403206,
    "passengers": 783
  },
  {
    "name": "오류초등학교입구(21310)",
    "lat": 36.326538,
    "lng": 127.40423,
    "passengers": 2942
  },
  {
    "name": "오류초등학교입구(21320)",
    "lat": 36.32637,
    "lng": 127.40397,
    "passengers": 2108
  },
  {
    "name": "주촌2구(13330)",
    "lat": 36.415653,
    "lng": 127.53734,
    "passengers": 138
  },
  {
    "name": "주촌2구(13340)",
    "lat": 36.415596,
    "lng": 127.53761,
    "passengers": 152
  },
  {
    "name": "서대전역(21340)",
    "lat": 36.323532,
    "lng": 127.404526,
    "passengers": 6629
  },
  {
    "name": "서대전역(21350)",
    "lat": 36.3227,
    "lng": 127.40459,
    "passengers": 13906
  },
  {
    "name": "하늘채2차아파트(13570)",
    "lat": 36.298443,
    "lng": 127.45881,
    "passengers": 5431
  },
  {
    "name": "소호2동(13720)",
    "lat": 36.265137,
    "lng": 127.4403,
    "passengers": 177
  },
  {
    "name": "소호2동(13730)",
    "lat": 36.264996,
    "lng": 127.44033,
    "passengers": 160
  },
  {
    "name": "서대전역네거리(21380)",
    "lat": 36.321037,
    "lng": 127.4069,
    "passengers": 60509
  },
  {
    "name": "중도일보(21390)",
    "lat": 36.326077,
    "lng": 127.40773,
    "passengers": 9273
  },
  {
    "name": "대전제2시립노인병원(14020)",
    "lat": 36.21287,
    "lng": 127.43957,
    "passengers": 186
  },
  {
    "name": "하소2통(14030)",
    "lat": 36.2197,
    "lng": 127.44092,
    "passengers": 1109
  },
  {
    "name": "하소2통(14040)",
    "lat": 36.21922,
    "lng": 127.44099,
    "passengers": 993
  },
  {
    "name": "버드내아파트(21420)",
    "lat": 36.316006,
    "lng": 127.38748,
    "passengers": 25734
  },
  {
    "name": "대전제2시립노인병원(14260)",
    "lat": 36.212765,
    "lng": 127.43957,
    "passengers": 231
  },
  {
    "name": "삼부/새롬아파트(21430)",
    "lat": 36.322155,
    "lng": 127.38996,
    "passengers": 7048
  },
  {
    "name": "버드내아파트(21450)",
    "lat": 36.319447,
    "lng": 127.392235,
    "passengers": 14889
  },
  {
    "name": "삼성2동(14540)",
    "lat": 36.34003,
    "lng": 127.41628,
    "passengers": 806
  },
  {
    "name": "태평오거리(21460)",
    "lat": 36.326553,
    "lng": 127.39286,
    "passengers": 20058
  },
  {
    "name": "국제과학21로(46900)",
    "lat": 36.44581,
    "lng": 127.35226,
    "passengers": 299
  },
  {
    "name": "태평오거리(21470)",
    "lat": 36.326183,
    "lng": 127.39304,
    "passengers": 22639
  },
  {
    "name": "삼부아파트(21480)",
    "lat": 36.32371,
    "lng": 127.393845,
    "passengers": 18641
  },
  {
    "name": "삼부아파트(21490)",
    "lat": 36.322933,
    "lng": 127.39383,
    "passengers": 16503
  },
  {
    "name": "태평초등학교(21500)",
    "lat": 36.321724,
    "lng": 127.39432,
    "passengers": 6246
  },
  {
    "name": "태평오거리(21510)",
    "lat": 36.326595,
    "lng": 127.39499,
    "passengers": 1609
  },
  {
    "name": "태평시장(21520)",
    "lat": 36.324688,
    "lng": 127.395035,
    "passengers": 3684
  },
  {
    "name": "태평시장(21530)",
    "lat": 36.324833,
    "lng": 127.395294,
    "passengers": 2103
  },
  {
    "name": "태평오거리(21540)",
    "lat": 36.32652,
    "lng": 127.39526,
    "passengers": 1272
  },
  {
    "name": "태평중학교(21560)",
    "lat": 36.32979,
    "lng": 127.3965,
    "passengers": 812
  },
  {
    "name": "태평중학교(21570)",
    "lat": 36.32976,
    "lng": 127.3968,
    "passengers": 764
  },
  {
    "name": "쌍용예가아파트(21590)",
    "lat": 36.32281,
    "lng": 127.398125,
    "passengers": 11935
  },
  {
    "name": "유등마을아파트(21600)",
    "lat": 36.33077,
    "lng": 127.397995,
    "passengers": 7254
  },
  {
    "name": "유등마을아파트(21610)",
    "lat": 36.330563,
    "lng": 127.39835,
    "passengers": 7172
  },
  {
    "name": "푸른뫼아파트(21620)",
    "lat": 36.32847,
    "lng": 127.39888,
    "passengers": 4056
  },
  {
    "name": "푸른뫼아파트(21630)",
    "lat": 36.328323,
    "lng": 127.39927,
    "passengers": 4358
  },
  {
    "name": "서대전역입구(21640)",
    "lat": 36.32497,
    "lng": 127.40029,
    "passengers": 14021
  },
  {
    "name": "서대전역입구(21650)",
    "lat": 36.325096,
    "lng": 127.40055,
    "passengers": 13684
  },
  {
    "name": "서남부터미널기점(21660)",
    "lat": 36.314888,
    "lng": 127.387314,
    "passengers": 4509
  },
  {
    "name": "서남부터미널종점(21670)",
    "lat": 36.31194,
    "lng": 127.38778,
    "passengers": 2622
  },
  {
    "name": "서남부터미널종점(21670)",
    "lat": 36.31271,
    "lng": 127.38789,
    "passengers": 164
  },
  {
    "name": "버드내아파트(21680)",
    "lat": 36.31583,
    "lng": 127.38794,
    "passengers": 22851
  },
  {
    "name": "서부종합시장(21690)",
    "lat": 36.31545,
    "lng": 127.39004,
    "passengers": 3943
  },
  {
    "name": "서부종합시장(21700)",
    "lat": 36.315086,
    "lng": 127.39017,
    "passengers": 2186
  },
  {
    "name": "버드내아파트(21710)",
    "lat": 36.31863,
    "lng": 127.392265,
    "passengers": 16365
  },
  {
    "name": "버드내네거리(21720)",
    "lat": 36.317017,
    "lng": 127.39268,
    "passengers": 19243
  },
  {
    "name": "산성우성아파트(21730)",
    "lat": 36.311466,
    "lng": 127.39393,
    "passengers": 15079
  },
  {
    "name": "태평초등학교(21740)",
    "lat": 36.32149,
    "lng": 127.39439,
    "passengers": 7247
  },
  {
    "name": "유천동서대전농협(21750)",
    "lat": 36.317894,
    "lng": 127.394745,
    "passengers": 24807
  },
  {
    "name": "유천네거리(21760)",
    "lat": 36.32074,
    "lng": 127.396484,
    "passengers": 3634
  },
  {
    "name": "유천시장(21770)",
    "lat": 36.31803,
    "lng": 127.396645,
    "passengers": 28036
  },
  {
    "name": "유천네거리(21780)",
    "lat": 36.32079,
    "lng": 127.39676,
    "passengers": 4706
  },
  {
    "name": "쌍용예가아파트(21800)",
    "lat": 36.322586,
    "lng": 127.39824,
    "passengers": 13738
  },
  {
    "name": "유천동현대아파트(21820)",
    "lat": 36.318836,
    "lng": 127.39835,
    "passengers": 40591
  },
  {
    "name": "문화초등학교(21830)",
    "lat": 36.31273,
    "lng": 127.398796,
    "passengers": 15186
  },
  {
    "name": "서대전육교(21840)",
    "lat": 36.31901,
    "lng": 127.40052,
    "passengers": 34753
  },
  {
    "name": "중구보건소(21850)",
    "lat": 36.308167,
    "lng": 127.39578,
    "passengers": 13155
  },
  {
    "name": "중구보건소(21860)",
    "lat": 36.308456,
    "lng": 127.39575,
    "passengers": 9651
  },
  {
    "name": "문화초등학교(21870)",
    "lat": 36.312126,
    "lng": 127.39726,
    "passengers": 10315
  },
  {
    "name": "문화동주공아파트(21880)",
    "lat": 36.31006,
    "lng": 127.39845,
    "passengers": 3689
  },
  {
    "name": "문화동주공아파트(21890)",
    "lat": 36.31043,
    "lng": 127.39953,
    "passengers": 5997
  },
  {
    "name": "문화육교(21900)",
    "lat": 36.312916,
    "lng": 127.4001,
    "passengers": 4917
  },
  {
    "name": "대문초등학교입구(21910)",
    "lat": 36.305977,
    "lng": 127.40072,
    "passengers": 7077
  },
  {
    "name": "대문초등학교입구(21920)",
    "lat": 36.305733,
    "lng": 127.40117,
    "passengers": 6266
  },
  {
    "name": "문화주공삼거리(21940)",
    "lat": 36.31089,
    "lng": 127.40147,
    "passengers": 14787
  },
  {
    "name": "충남기계공고(21950)",
    "lat": 36.31178,
    "lng": 127.40145,
    "passengers": 3159
  },
  {
    "name": "충남기계공고(21960)",
    "lat": 36.31246,
    "lng": 127.402214,
    "passengers": 5727
  },
  {
    "name": "천근오거리(21970)",
    "lat": 36.309452,
    "lng": 127.403206,
    "passengers": 9431
  },
  {
    "name": "천근오거리(21980)",
    "lat": 36.3093,
    "lng": 127.403275,
    "passengers": 6651
  },
  {
    "name": "동산중고등학교(21990)",
    "lat": 36.31461,
    "lng": 127.40472,
    "passengers": 31259
  },
  {
    "name": "동산중고등학교(22000)",
    "lat": 36.314426,
    "lng": 127.40493,
    "passengers": 28161
  },
  {
    "name": "문화동삼익아파트(22020)",
    "lat": 36.318707,
    "lng": 127.406296,
    "passengers": 19025
  },
  {
    "name": "서대전역네거리(22040)",
    "lat": 36.320564,
    "lng": 127.406425,
    "passengers": 111438
  },
  {
    "name": "중촌주공2단지(20490)",
    "lat": 36.343216,
    "lng": 127.410576,
    "passengers": 223
  },
  {
    "name": "중촌주공2단지(20490)",
    "lat": 36.34463,
    "lng": 127.4113,
    "passengers": 12013
  },
  {
    "name": "한밭도서관(22050)",
    "lat": 36.3095,
    "lng": 127.4071,
    "passengers": 10003
  },
  {
    "name": "한밭도서관(22060)",
    "lat": 36.30937,
    "lng": 127.40727,
    "passengers": 11436
  },
  {
    "name": "대전국제통상고(22090)",
    "lat": 36.313187,
    "lng": 127.40823,
    "passengers": 3943
  },
  {
    "name": "한국산업인력공단(22100)",
    "lat": 36.31085,
    "lng": 127.40816,
    "passengers": 7207
  },
  {
    "name": "한밭도서관(22110)",
    "lat": 36.30991,
    "lng": 127.40835,
    "passengers": 9260
  },
  {
    "name": "대전국제통상고(22120)",
    "lat": 36.313187,
    "lng": 127.408516,
    "passengers": 4383
  },
  {
    "name": "오룡역2번출구(21290)",
    "lat": 36.328133,
    "lng": 127.4042,
    "passengers": 15074
  },
  {
    "name": "버드내2단지(21440)",
    "lat": 36.32182,
    "lng": 127.39009,
    "passengers": 7017
  },
  {
    "name": "과례마을(22160)",
    "lat": 36.311428,
    "lng": 127.410805,
    "passengers": 1815
  },
  {
    "name": "과례마을(22170)",
    "lat": 36.31142,
    "lng": 127.41096,
    "passengers": 2589
  },
  {
    "name": "유천2동주민센터(21790)",
    "lat": 36.316727,
    "lng": 127.3979,
    "passengers": 11530
  },
  {
    "name": "대전동부교육지원청(22180)",
    "lat": 36.314106,
    "lng": 127.41113,
    "passengers": 1474
  },
  {
    "name": "유천2동주민센터(21810)",
    "lat": 36.316223,
    "lng": 127.39834,
    "passengers": 10590
  },
  {
    "name": "대전동부교육지원청(22190)",
    "lat": 36.31403,
    "lng": 127.41129,
    "passengers": 1341
  },
  {
    "name": "문화2동(22010)",
    "lat": 36.3067,
    "lng": 127.40576,
    "passengers": 2837
  },
  {
    "name": "문화2동(22030)",
    "lat": 36.307014,
    "lng": 127.40628,
    "passengers": 1910
  },
  {
    "name": "충남대학교병원(22210)",
    "lat": 36.317802,
    "lng": 127.41348,
    "passengers": 22613
  },
  {
    "name": "센트럴파크2단지(22130)",
    "lat": 36.31631,
    "lng": 127.409584,
    "passengers": 6314
  },
  {
    "name": "센트럴파크2단지(22140)",
    "lat": 36.31571,
    "lng": 127.40874,
    "passengers": 7285
  },
  {
    "name": "서대전네거리역2번출구(22150)",
    "lat": 36.321434,
    "lng": 127.409584,
    "passengers": 80156
  },
  {
    "name": "충남대학교병원(22220)",
    "lat": 36.31751,
    "lng": 127.413574,
    "passengers": 28506
  },
  {
    "name": "대전충남병무청(22250)",
    "lat": 36.322647,
    "lng": 127.41511,
    "passengers": 68167
  },
  {
    "name": "한밭가든아파트(22260)",
    "lat": 36.30437,
    "lng": 127.3835,
    "passengers": 14168
  },
  {
    "name": "한밭가든아파트(22270)",
    "lat": 36.304638,
    "lng": 127.384636,
    "passengers": 19676
  },
  {
    "name": "산성네거리(22280)",
    "lat": 36.303757,
    "lng": 127.386055,
    "passengers": 33605
  },
  {
    "name": "산성네거리(22290)",
    "lat": 36.30329,
    "lng": 127.386314,
    "passengers": 34489
  },
  {
    "name": "정생2동(22900)",
    "lat": 36.25081,
    "lng": 127.40685,
    "passengers": 126
  },
  {
    "name": "정생2동(22960)",
    "lat": 36.25069,
    "lng": 127.40671,
    "passengers": 145
  },
  {
    "name": "산성동행정복지센터(22300)",
    "lat": 36.30615,
    "lng": 127.38652,
    "passengers": 35933
  },
  {
    "name": "산성시장(22310)",
    "lat": 36.306076,
    "lng": 127.38686,
    "passengers": 43577
  },
  {
    "name": "머티네거리(22320)",
    "lat": 36.309193,
    "lng": 127.38768,
    "passengers": 11163
  },
  {
    "name": "구완2교(23270)",
    "lat": 36.27762,
    "lng": 127.4215,
    "passengers": 37
  },
  {
    "name": "산성시장(22330)",
    "lat": 36.305336,
    "lng": 127.38817,
    "passengers": 9892
  },
  {
    "name": "산성시장(22340)",
    "lat": 36.305172,
    "lng": 127.388626,
    "passengers": 7844
  },
  {
    "name": "머티네거리(22350)",
    "lat": 36.3101,
    "lng": 127.38872,
    "passengers": 3106
  },
  {
    "name": "구완2교(23570)",
    "lat": 36.277527,
    "lng": 127.42145,
    "passengers": 249
  },
  {
    "name": "머티네거리(22360)",
    "lat": 36.31141,
    "lng": 127.38883,
    "passengers": 1373
  },
  {
    "name": "서남부터미널(22370)",
    "lat": 36.312706,
    "lng": 127.389,
    "passengers": 2042
  },
  {
    "name": "중촌주공2단지(23710)",
    "lat": 36.344543,
    "lng": 127.41145,
    "passengers": 8789
  },
  {
    "name": "문성초등학교입구(22380)",
    "lat": 36.3103,
    "lng": 127.390205,
    "passengers": 17343
  },
  {
    "name": "문성초등학교입구(22390)",
    "lat": 36.310802,
    "lng": 127.39131,
    "passengers": 10484
  },
  {
    "name": "산성동새마을회관(22400)",
    "lat": 36.306236,
    "lng": 127.39183,
    "passengers": 4552
  },
  {
    "name": "산성동새마을회관(22410)",
    "lat": 36.306515,
    "lng": 127.392075,
    "passengers": 3465
  },
  {
    "name": "탑골입구(22420)",
    "lat": 36.305153,
    "lng": 127.39357,
    "passengers": 7064
  },
  {
    "name": "산성우성아파트(22430)",
    "lat": 36.311142,
    "lng": 127.3937,
    "passengers": 18857
  },
  {
    "name": "보성초등학교(22440)",
    "lat": 36.30538,
    "lng": 127.39416,
    "passengers": 6575
  },
  {
    "name": "효문화마을입구(22450)",
    "lat": 36.286552,
    "lng": 127.37853,
    "passengers": 2707
  },
  {
    "name": "농산물유통센터(22460)",
    "lat": 36.28877,
    "lng": 127.38014,
    "passengers": 6878
  },
  {
    "name": "국제과학22로(46910)",
    "lat": 36.44308,
    "lng": 127.350296,
    "passengers": 82
  },
  {
    "name": "농산물유통센터(22470)",
    "lat": 36.28847,
    "lng": 127.380196,
    "passengers": 9324
  },
  {
    "name": "한국효문화진흥원(22480)",
    "lat": 36.285282,
    "lng": 127.3804,
    "passengers": 759
  },
  {
    "name": "한국효문화진흥원(22490)",
    "lat": 36.284946,
    "lng": 127.381836,
    "passengers": 773
  },
  {
    "name": "뿌리공원(22490)",
    "lat": 36.286144,
    "lng": 127.37909,
    "passengers": 32
  },
  {
    "name": "우남스타원아파트(22500)",
    "lat": 36.29316,
    "lng": 127.38268,
    "passengers": 5759
  },
  {
    "name": "사정교(22510)",
    "lat": 36.29575,
    "lng": 127.38379,
    "passengers": 3043
  },
  {
    "name": "우남스타원아파트(22520)",
    "lat": 36.293278,
    "lng": 127.383125,
    "passengers": 3941
  },
  {
    "name": "사정교(22530)",
    "lat": 36.295982,
    "lng": 127.38366,
    "passengers": 4833
  },
  {
    "name": "효문화마을/뿌리공원(22540)",
    "lat": 36.28538,
    "lng": 127.38376,
    "passengers": 9126
  },
  {
    "name": "사정동(22550)",
    "lat": 36.29794,
    "lng": 127.38467,
    "passengers": 15575
  },
  {
    "name": "사정동(22560)",
    "lat": 36.297787,
    "lng": 127.38488,
    "passengers": 26795
  },
  {
    "name": "산성초등학교(22570)",
    "lat": 36.300503,
    "lng": 127.3855,
    "passengers": 8556
  },
  {
    "name": "산성초등학교(22580)",
    "lat": 36.300632,
    "lng": 127.385826,
    "passengers": 9126
  },
  {
    "name": "산성어린이도서관(22590)",
    "lat": 36.295742,
    "lng": 127.38675,
    "passengers": 5096
  },
  {
    "name": "산성어린이도서관(22600)",
    "lat": 36.295925,
    "lng": 127.38716,
    "passengers": 6963
  },
  {
    "name": "오월드회전교차로(22610)",
    "lat": 36.291527,
    "lng": 127.38817,
    "passengers": 708
  },
  {
    "name": "오월드회전교차로(22620)",
    "lat": 36.29127,
    "lng": 127.38825,
    "passengers": 652
  },
  {
    "name": "상당(22630)",
    "lat": 36.294476,
    "lng": 127.38923,
    "passengers": 1378
  },
  {
    "name": "상당(22640)",
    "lat": 36.294456,
    "lng": 127.38949,
    "passengers": 1791
  },
  {
    "name": "오월드(22650)",
    "lat": 36.290104,
    "lng": 127.39497,
    "passengers": 8877
  },
  {
    "name": "한빛고교(22660)",
    "lat": 36.28315,
    "lng": 127.37609,
    "passengers": 5457
  },
  {
    "name": "한빛고교(22660)",
    "lat": 36.284378,
    "lng": 127.37635,
    "passengers": 2
  },
  {
    "name": "한빛고교(22670)",
    "lat": 36.28324,
    "lng": 127.37591,
    "passengers": 350
  },
  {
    "name": "안영생활체육단지(22680)",
    "lat": 36.28519,
    "lng": 127.376335,
    "passengers": 1173
  },
  {
    "name": "안영생활체육단지(22690)",
    "lat": 36.285152,
    "lng": 127.37655,
    "passengers": 289
  },
  {
    "name": "안영동검바위마을(22700)",
    "lat": 36.27322,
    "lng": 127.3772,
    "passengers": 264
  },
  {
    "name": "안영동검바위마을(22710)",
    "lat": 36.273804,
    "lng": 127.37731,
    "passengers": 1779
  },
  {
    "name": "안영동검바위마을(22710)",
    "lat": 36.275196,
    "lng": 127.37695,
    "passengers": 18
  },
  {
    "name": "효문화마을입구(22720)",
    "lat": 36.28638,
    "lng": 127.3783,
    "passengers": 686
  },
  {
    "name": "샛고개(22730)",
    "lat": 36.27125,
    "lng": 127.37905,
    "passengers": 11
  },
  {
    "name": "오월드기점지(22740)",
    "lat": 36.292747,
    "lng": 127.3995,
    "passengers": 98
  },
  {
    "name": "침산동입구(22760)",
    "lat": 36.277317,
    "lng": 127.39847,
    "passengers": 24
  },
  {
    "name": "침산동입구(22760)",
    "lat": 36.277416,
    "lng": 127.39842,
    "passengers": 133
  },
  {
    "name": "침산동입구(22770)",
    "lat": 36.277416,
    "lng": 127.39857,
    "passengers": 165
  },
  {
    "name": "구완동(22780)",
    "lat": 36.279316,
    "lng": 127.424515,
    "passengers": 48
  },
  {
    "name": "대전청소년수련마을(22790)",
    "lat": 36.270885,
    "lng": 127.39305,
    "passengers": 492
  },
  {
    "name": "정생농협창고(22800)",
    "lat": 36.258553,
    "lng": 127.39826,
    "passengers": 74
  },
  {
    "name": "정생농협창고(22810)",
    "lat": 36.258682,
    "lng": 127.39835,
    "passengers": 29
  },
  {
    "name": "중구체육복지센터(22840)",
    "lat": 36.275246,
    "lng": 127.400246,
    "passengers": 77
  },
  {
    "name": "중구체육복지센터(22850)",
    "lat": 36.27535,
    "lng": 127.400375,
    "passengers": 68
  },
  {
    "name": "목달동(22860)",
    "lat": 36.271717,
    "lng": 127.40086,
    "passengers": 126
  },
  {
    "name": "목달동(22870)",
    "lat": 36.27171,
    "lng": 127.40101,
    "passengers": 181
  },
  {
    "name": "화곡(22880)",
    "lat": 36.25397,
    "lng": 127.40135,
    "passengers": 26
  },
  {
    "name": "화곡(22890)",
    "lat": 36.254017,
    "lng": 127.40158,
    "passengers": 17
  },
  {
    "name": "산서초등학교(22910)",
    "lat": 36.26677,
    "lng": 127.40827,
    "passengers": 623
  },
  {
    "name": "답적골(22940)",
    "lat": 36.24613,
    "lng": 127.40583,
    "passengers": 240
  },
  {
    "name": "답적골(22950)",
    "lat": 36.24609,
    "lng": 127.40576,
    "passengers": 244
  },
  {
    "name": "사기정골(22970)",
    "lat": 36.24791,
    "lng": 127.41037,
    "passengers": 181
  },
  {
    "name": "사기정골(22980)",
    "lat": 36.248024,
    "lng": 127.410484,
    "passengers": 125
  },
  {
    "name": "도리뫼(22990)",
    "lat": 36.2329,
    "lng": 127.407585,
    "passengers": 73
  },
  {
    "name": "도리뫼(23000)",
    "lat": 36.232903,
    "lng": 127.407745,
    "passengers": 72
  },
  {
    "name": "어남동(23010)",
    "lat": 36.21299,
    "lng": 127.41244,
    "passengers": 410
  },
  {
    "name": "어남동(23020)",
    "lat": 36.212914,
    "lng": 127.41247,
    "passengers": 3
  },
  {
    "name": "증터(23030)",
    "lat": 36.22241,
    "lng": 127.416504,
    "passengers": 18
  },
  {
    "name": "증터(23040)",
    "lat": 36.22247,
    "lng": 127.41655,
    "passengers": 29
  },
  {
    "name": "한국무예연수원(23050)",
    "lat": 36.21808,
    "lng": 127.41758,
    "passengers": 115
  },
  {
    "name": "한국무예연수원(23060)",
    "lat": 36.218197,
    "lng": 127.417595,
    "passengers": 414
  },
  {
    "name": "도마2동주민센터(30600)",
    "lat": 36.312424,
    "lng": 127.37409,
    "passengers": 4250
  },
  {
    "name": "모랭이(23070)",
    "lat": 36.244854,
    "lng": 127.421906,
    "passengers": 167
  },
  {
    "name": "모랭이(23080)",
    "lat": 36.24494,
    "lng": 127.422035,
    "passengers": 230
  },
  {
    "name": "금동마을(23090)",
    "lat": 36.24563,
    "lng": 127.42637,
    "passengers": 136
  },
  {
    "name": "금동마을(23100)",
    "lat": 36.245693,
    "lng": 127.42619,
    "passengers": 151
  },
  {
    "name": "금동(23110)",
    "lat": 36.245865,
    "lng": 127.42811,
    "passengers": 133
  },
  {
    "name": "대자연아파트(23120)",
    "lat": 36.315353,
    "lng": 127.41709,
    "passengers": 1297
  },
  {
    "name": "대자연아파트(23130)",
    "lat": 36.315403,
    "lng": 127.41748,
    "passengers": 1409
  },
  {
    "name": "한밭도서관후문(23140)",
    "lat": 36.310387,
    "lng": 127.41142,
    "passengers": 1623
  },
  {
    "name": "한밭도서관후문(23150)",
    "lat": 36.31012,
    "lng": 127.41141,
    "passengers": 1703
  },
  {
    "name": "래미안아파트2단지(31520)",
    "lat": 36.33346,
    "lng": 127.38732,
    "passengers": 19029
  },
  {
    "name": "래미안아파트2단지(31550)",
    "lat": 36.334217,
    "lng": 127.38771,
    "passengers": 24958
  },
  {
    "name": "안복수길(23160)",
    "lat": 36.29668,
    "lng": 127.37679,
    "passengers": 1478
  },
  {
    "name": "서우아파트2단지(31610)",
    "lat": 36.333344,
    "lng": 127.3726,
    "passengers": 16224
  },
  {
    "name": "안복수길(23170)",
    "lat": 36.29677,
    "lng": 127.37684,
    "passengers": 2661
  },
  {
    "name": "갈마아파트2단지(31740)",
    "lat": 36.342327,
    "lng": 127.36717,
    "passengers": 21973
  },
  {
    "name": "충남대학병원동문(23180)",
    "lat": 36.317757,
    "lng": 127.41753,
    "passengers": 3546
  },
  {
    "name": "중구국민체육센터(23190)",
    "lat": 36.329857,
    "lng": 127.41893,
    "passengers": 4032
  },
  {
    "name": "갈마2동주민센터/충청투데이(31950)",
    "lat": 36.345707,
    "lng": 127.37466,
    "passengers": 21590
  },
  {
    "name": "버드내아파트(23210)",
    "lat": 36.31661,
    "lng": 127.38671,
    "passengers": 548
  },
  {
    "name": "버드내아파트(23210)",
    "lat": 36.317,
    "lng": 127.3863,
    "passengers": 15
  },
  {
    "name": "파라곤아파트(23220)",
    "lat": 36.320885,
    "lng": 127.38693,
    "passengers": 2343
  },
  {
    "name": "둔산2동주민센터(32230)",
    "lat": 36.353455,
    "lng": 127.380875,
    "passengers": 7746
  },
  {
    "name": "홀트아동복지회관(23230)",
    "lat": 36.313026,
    "lng": 127.41435,
    "passengers": 831
  },
  {
    "name": "목양마을아파트후문(23240)",
    "lat": 36.33695,
    "lng": 127.40358,
    "passengers": 259
  },
  {
    "name": "으능정이거리(23250)",
    "lat": 36.329296,
    "lng": 127.42716,
    "passengers": 81651
  },
  {
    "name": "보문오거리(23260)",
    "lat": 36.31739,
    "lng": 127.42518,
    "passengers": 14243
  },
  {
    "name": "목양초등학교(23280)",
    "lat": 36.33632,
    "lng": 127.406296,
    "passengers": 2478
  },
  {
    "name": "목양초등학교(23290)",
    "lat": 36.336227,
    "lng": 127.406075,
    "passengers": 2415
  },
  {
    "name": "한화생명이글스파크(23300)",
    "lat": 36.31807,
    "lng": 127.42851,
    "passengers": 3248
  },
  {
    "name": "보문산진입로(23310)",
    "lat": 36.315628,
    "lng": 127.42538,
    "passengers": 2202
  },
  {
    "name": "보문산진입로(23320)",
    "lat": 36.315903,
    "lng": 127.42575,
    "passengers": 2700
  },
  {
    "name": "보문산공원로(23330)",
    "lat": 36.31366,
    "lng": 127.42235,
    "passengers": 1348
  },
  {
    "name": "보문산공원로(23340)",
    "lat": 36.31354,
    "lng": 127.42233,
    "passengers": 1623
  },
  {
    "name": "관저2동행정복지센터(33460)",
    "lat": 36.299694,
    "lng": 127.334946,
    "passengers": 14945
  },
  {
    "name": "보문산공원(23350)",
    "lat": 36.312027,
    "lng": 127.420395,
    "passengers": 10501
  },
  {
    "name": "문창동보문교(23360)",
    "lat": 36.32028,
    "lng": 127.43418,
    "passengers": 1283
  },
  {
    "name": "중구청역(23370)",
    "lat": 36.324146,
    "lng": 127.41843,
    "passengers": 6341
  },
  {
    "name": "오월드(23380)",
    "lat": 36.290077,
    "lng": 127.39558,
    "passengers": 6648
  },
  {
    "name": "평촌2통아래뜸(33860)",
    "lat": 36.238014,
    "lng": 127.3125,
    "passengers": 221
  },
  {
    "name": "평촌2통아래뜸(33870)",
    "lat": 36.237865,
    "lng": 127.31247,
    "passengers": 289
  },
  {
    "name": "평촌2통마을회관(33880)",
    "lat": 36.239536,
    "lng": 127.315384,
    "passengers": 446
  },
  {
    "name": "윗사정삼거리(23390)",
    "lat": 36.29263,
    "lng": 127.39815,
    "passengers": 3791
  },
  {
    "name": "평촌2통마을회관(33900)",
    "lat": 36.239426,
    "lng": 127.31553,
    "passengers": 536
  },
  {
    "name": "윗사정삼거리(23400)",
    "lat": 36.29278,
    "lng": 127.397995,
    "passengers": 2648
  },
  {
    "name": "윗사정삼거리(23400)",
    "lat": 36.293003,
    "lng": 127.399086,
    "passengers": 177
  },
  {
    "name": "백골저수지(23410)",
    "lat": 36.2957,
    "lng": 127.39987,
    "passengers": 3
  },
  {
    "name": "백골저수지(23420)",
    "lat": 36.295815,
    "lng": 127.399704,
    "passengers": 3
  },
  {
    "name": "대전보훈공원입구(23430)",
    "lat": 36.2983,
    "lng": 127.395065,
    "passengers": 5
  },
  {
    "name": "우명2구(34320)",
    "lat": 36.225334,
    "lng": 127.29443,
    "passengers": 98
  },
  {
    "name": "우명2구(34330)",
    "lat": 36.225357,
    "lng": 127.29455,
    "passengers": 109
  },
  {
    "name": "용촌2통(34390)",
    "lat": 36.24882,
    "lng": 127.312775,
    "passengers": 160
  },
  {
    "name": "대전보훈공원입구(23440)",
    "lat": 36.298214,
    "lng": 127.39468,
    "passengers": 6
  },
  {
    "name": "용촌2통(34400)",
    "lat": 36.24872,
    "lng": 127.312775,
    "passengers": 237
  },
  {
    "name": "백골삼거리(23450)",
    "lat": 36.300045,
    "lng": 127.393295,
    "passengers": 2
  },
  {
    "name": "백골삼거리(23460)",
    "lat": 36.300137,
    "lng": 127.39298,
    "passengers": 4
  },
  {
    "name": "보성네거리(23470)",
    "lat": 36.30357,
    "lng": 127.39426,
    "passengers": 3
  },
  {
    "name": "보성네거리(23480)",
    "lat": 36.304214,
    "lng": 127.39427,
    "passengers": 10
  },
  {
    "name": "보문산교통광장(23490)",
    "lat": 36.287434,
    "lng": 127.39129,
    "passengers": 61
  },
  {
    "name": "보문산교통광장(23500)",
    "lat": 36.28766,
    "lng": 127.39131,
    "passengers": 55
  },
  {
    "name": "중촌동과선교(23510)",
    "lat": 36.342884,
    "lng": 127.40902,
    "passengers": 1960
  },
  {
    "name": "산직2동종점(35140)",
    "lat": 36.24337,
    "lng": 127.35234,
    "passengers": 260
  },
  {
    "name": "샛고개(23520)",
    "lat": 36.271008,
    "lng": 127.37876,
    "passengers": 53
  },
  {
    "name": "무수동입구(23530)",
    "lat": 36.27708,
    "lng": 127.402275,
    "passengers": 64
  },
  {
    "name": "무수동입구(23540)",
    "lat": 36.27715,
    "lng": 127.40226,
    "passengers": 85
  },
  {
    "name": "무수동(23550)",
    "lat": 36.276955,
    "lng": 127.40685,
    "passengers": 42
  },
  {
    "name": "관저더샵2단지(35560)",
    "lat": 36.293602,
    "lng": 127.32749,
    "passengers": 2559
  },
  {
    "name": "무수동(23560)",
    "lat": 36.276924,
    "lng": 127.40698,
    "passengers": 55
  },
  {
    "name": "침산교/점말(23580)",
    "lat": 36.27637,
    "lng": 127.397285,
    "passengers": 71
  },
  {
    "name": "둔산2동주민센터(35850)",
    "lat": 36.353645,
    "lng": 127.38086,
    "passengers": 1979
  },
  {
    "name": "침산교/점말(23590)",
    "lat": 36.27634,
    "lng": 127.397415,
    "passengers": 8
  },
  {
    "name": "침산동(23600)",
    "lat": 36.27371,
    "lng": 127.396255,
    "passengers": 70
  },
  {
    "name": "침산동(23610)",
    "lat": 36.27363,
    "lng": 127.396385,
    "passengers": 5
  },
  {
    "name": "금동(23620)",
    "lat": 36.245754,
    "lng": 127.42814,
    "passengers": 93
  },
  {
    "name": "사정공원(23630)",
    "lat": 36.298557,
    "lng": 127.405045,
    "passengers": 42
  },
  {
    "name": "홀트아동복지회관(23640)",
    "lat": 36.312157,
    "lng": 127.41382,
    "passengers": 795
  },
  {
    "name": "목달동/송곡가든(23650)",
    "lat": 36.268944,
    "lng": 127.40438,
    "passengers": 92
  },
  {
    "name": "목달동/송곡가든(23660)",
    "lat": 36.26898,
    "lng": 127.404816,
    "passengers": 20
  },
  {
    "name": "파라곤아파트(23670)",
    "lat": 36.32012,
    "lng": 127.386345,
    "passengers": 1269
  },
  {
    "name": "중촌동과선교(23680)",
    "lat": 36.342793,
    "lng": 127.409424,
    "passengers": 3241
  },
  {
    "name": "금동이고개(23690)",
    "lat": 36.246017,
    "lng": 127.41792,
    "passengers": 28
  },
  {
    "name": "금동이고개(23700)",
    "lat": 36.245914,
    "lng": 127.417984,
    "passengers": 33
  },
  {
    "name": "푸르지오아파트(23720)",
    "lat": 36.34668,
    "lng": 127.40969,
    "passengers": 3250
  },
  {
    "name": "대정2통(40290)",
    "lat": 36.315563,
    "lng": 127.315384,
    "passengers": 674
  },
  {
    "name": "용계2통(40390)",
    "lat": 36.326942,
    "lng": 127.32982,
    "passengers": 100
  },
  {
    "name": "용계2통(40400)",
    "lat": 36.32693,
    "lng": 127.32988,
    "passengers": 295
  },
  {
    "name": "성북2통마을회관앞(40550)",
    "lat": 36.30641,
    "lng": 127.29155,
    "passengers": 484
  },
  {
    "name": "성북2통마을회관앞(40560)",
    "lat": 36.30664,
    "lng": 127.29163,
    "passengers": 352
  },
  {
    "name": "성북2통동구나무(40570)",
    "lat": 36.3038,
    "lng": 127.292625,
    "passengers": 80
  },
  {
    "name": "성북2통동구나무(40580)",
    "lat": 36.303936,
    "lng": 127.29271,
    "passengers": 204
  },
  {
    "name": "세동2통(40770)",
    "lat": 36.284878,
    "lng": 127.27648,
    "passengers": 151
  },
  {
    "name": "세동2통(40780)",
    "lat": 36.284863,
    "lng": 127.27658,
    "passengers": 114
  },
  {
    "name": "송정2통(40880)",
    "lat": 36.276085,
    "lng": 127.26265,
    "passengers": 149
  },
  {
    "name": "송정2통(40890)",
    "lat": 36.275784,
    "lng": 127.262794,
    "passengers": 165
  },
  {
    "name": "유성온천역2번출구(41280)",
    "lat": 36.351986,
    "lng": 127.341034,
    "passengers": 6713
  },
  {
    "name": "복용2통(41970)",
    "lat": 36.340748,
    "lng": 127.31869,
    "passengers": 971
  },
  {
    "name": "복용2통(41980)",
    "lat": 36.34099,
    "lng": 127.318634,
    "passengers": 2841
  },
  {
    "name": "스마트시티2단지(43290)",
    "lat": 36.37747,
    "lng": 127.39015,
    "passengers": 10720
  },
  {
    "name": "송림마을2단지(43590)",
    "lat": 36.38645,
    "lng": 127.32136,
    "passengers": 5394
  },
  {
    "name": "반석2통(43880)",
    "lat": 36.390854,
    "lng": 127.30856,
    "passengers": 3819
  },
  {
    "name": "반석2통(43890)",
    "lat": 36.3903,
    "lng": 127.30674,
    "passengers": 2981
  },
  {
    "name": "테크노밸리2단지(44510)",
    "lat": 36.41863,
    "lng": 127.383026,
    "passengers": 7073
  },
  {
    "name": "테크노밸리2단지(44520)",
    "lat": 36.418896,
    "lng": 127.38294,
    "passengers": 6744
  },
  {
    "name": "금고2통(44860)",
    "lat": 36.458992,
    "lng": 127.38511,
    "passengers": 2
  },
  {
    "name": "금고2통(44870)",
    "lat": 36.458904,
    "lng": 127.38522,
    "passengers": 74
  },
  {
    "name": "대동2통(45040)",
    "lat": 36.483562,
    "lng": 127.39713,
    "passengers": 48
  },
  {
    "name": "대동2통(45050)",
    "lat": 36.48357,
    "lng": 127.39722,
    "passengers": 40
  },
  {
    "name": "서한이다음2단지(45170)",
    "lat": 36.45175,
    "lng": 127.36182,
    "passengers": 59
  },
  {
    "name": "서한이다음2단지(45180)",
    "lat": 36.45185,
    "lng": 127.362,
    "passengers": 122
  },
  {
    "name": "구룡2통(45190)",
    "lat": 36.447147,
    "lng": 127.365944,
    "passengers": 115
  },
  {
    "name": "구룡2통(45200)",
    "lat": 36.447643,
    "lng": 127.36519,
    "passengers": 99
  },
  {
    "name": "온천2동주민센터(45280)",
    "lat": 36.365158,
    "lng": 127.33516,
    "passengers": 13182
  },
  {
    "name": "유성온천역2번출구(45700)",
    "lat": 36.351593,
    "lng": 127.34072,
    "passengers": 26508
  },
  {
    "name": "서한이다음2단지(46860)",
    "lat": 36.452316,
    "lng": 127.36349,
    "passengers": 3525
  },
  {
    "name": "둔곡2교(46880)",
    "lat": 36.45643,
    "lng": 127.3606,
    "passengers": 165
  },
  {
    "name": "둔곡2교(47010)",
    "lat": 36.45624,
    "lng": 127.36128,
    "passengers": 121
  },
  {
    "name": "서한이다음2단지(47030)",
    "lat": 36.452374,
    "lng": 127.363335,
    "passengers": 3497
  },
  {
    "name": "호반써밋그랜드파크2단지(47200)",
    "lat": 36.41287,
    "lng": 127.39165,
    "passengers": 687
  },